Time_s	Heading_deg	Pitch_rad	Roll_rad	Yaw_rad	Lat	Long	Alt_m_AGL
1535745476.1	58.0	-0.0333135128021	-0.00823573675007	1.01980185509	34.9090904	-111.4387441	-2.3
1535745476.2	58.0	-0.0334323234856	-0.00824681762606	1.02032613754	34.9090904	-111.4387442	-2.29
1535745476.31	58.0	-0.0334455296397	-0.00826602987945	1.02046024799	34.9090904	-111.4387442	-2.29
1535745476.4	58.0	-0.0334833823144	-0.00818086322397	1.02063143253	34.9090903	-111.4387443	-2.29
1535745476.5	58.0	-0.0334811173379	-0.00818367209285	1.02073776722	34.9090903	-111.4387443	-2.29
1535745476.61	58.0	-0.033528059721	-0.00817000120878	1.02089607716	34.9090904	-111.4387443	-2.28
1535745476.71	58.0	-0.0334962010384	-0.00817705690861	1.02105331421	34.9090904	-111.4387443	-2.28
1535745476.8	58.0	-0.0335093960166	-0.00818003900349	1.02118241787	34.9090904	-111.4387444	-2.28
1535745476.91	58.0	-0.0334824882448	-0.00822425447404	1.02132713795	34.9090903	-111.4387445	-2.28
1535745477.01	58.0	-0.0334969609976	-0.00827395170927	1.02146780491	34.9090904	-111.4387445	-2.28
1535745477.1	58.0	-0.0334999114275	-0.00827005133033	1.0216242075	34.9090904	-111.4387445	-2.28
1535745477.21	58.0	-0.0335191302001	-0.00826079770923	1.02175605297	34.9090903	-111.4387445	-2.29
1535745477.3	58.0	-0.0335062034428	-0.00825171452016	1.02191650867	34.9090903	-111.4387445	-2.29
1535745477.4	58.0	-0.0334660410881	-0.00823495257646	1.0220849514	34.9090903	-111.4387446	-2.28
1535745477.51	58.0	-0.0334815494716	-0.00817545503378	1.02222180367	34.9090902	-111.4387447	-2.28
1535745477.6	58.0	-0.0334580056369	-0.0081294272095	1.02231872082	34.9090902	-111.4387447	-2.28
1535745477.7	58.0	-0.0334881059825	-0.00812554825097	1.02242851257	34.9090902	-111.4387447	-2.27
1535745477.81	58.0	-0.0334696732461	-0.00813046842813	1.02257287502	34.9090902	-111.4387447	-2.26
1535745477.9	58.0	-0.0334429629147	-0.00807917676866	1.02269089222	34.9090902	-111.4387447	-2.26
1535745478.01	58.0	-0.0334928557277	-0.00802653003484	1.02283143997	34.9090902	-111.4387447	-2.25
1535745478.1	58.0	-0.0334700196981	-0.00801208429039	1.02295970917	34.9090901	-111.4387448	-2.24
1535745478.21	58.0	-0.0334869325161	-0.00798522494733	1.02308297157	34.9090901	-111.4387448	-2.24
1535745478.31	58.0	-0.0334926955402	-0.00794618576765	1.02324724197	34.9090901	-111.4387448	-2.24
1535745478.4	58.0	-0.0335069410503	-0.00796948559582	1.02338278294	34.9090901	-111.4387448	-2.24
1535745478.5	58.0	-0.0334910340607	-0.00795479863882	1.02354562283	34.9090901	-111.4387448	-2.24
1535745478.61	58.0	-0.0335000455379	-0.00790164992213	1.02366626263	34.90909	-111.4387448	-2.24
1535745478.7	58.0	-0.0335072763264	-0.00786121562123	1.02379965782	34.90909	-111.4387448	-2.24
1535745478.8	58.0	-0.0335092917085	-0.0078004701063	1.02390384674	34.90909	-111.4387449	-2.24
1535745478.91	58.0	-0.0334617756307	-0.00774383591488	1.0240445137	34.9090899	-111.4387449	-2.23
1535745479.01	58.0	-0.0334463752806	-0.00771395722404	1.0241765976	34.9090899	-111.4387448	-2.23
1535745479.1	58.0	-0.033446200192	-0.0076748104766	1.02431499958	34.9090899	-111.4387448	-2.23
1535745479.21	58.0	-0.0334470272064	-0.0075965016149	1.02442681789	34.9090899	-111.4387448	-2.22
1535745479.31	58.0	-0.0334957316518	-0.00756260799244	1.02459812164	34.9090898	-111.4387448	-2.22
1535745479.4	58.0	-0.0335299633443	-0.0075224628672	1.02471220493	34.9090898	-111.4387448	-2.22
1535745479.51	58.0	-0.0335538759828	-0.00751989800483	1.02484083176	34.9090898	-111.4387448	-2.21
1535745479.61	58.0	-0.0335849896073	-0.00750381685793	1.02497971058	34.9090898	-111.4387447	-2.21
1535745479.7	58.0	-0.0335946977139	-0.00752291176468	1.02511358261	34.9090898	-111.4387447	-2.21
1535745479.8	58.0	-0.033628989011	-0.00751413637772	1.02522873878	34.9090898	-111.4387448	-2.2
1535745479.91	58.0	-0.0336504466832	-0.00753289740533	1.02539920807	34.9090898	-111.4387447	-2.19
1535745480.0	58.0	-0.0336793102324	-0.00755309918895	1.02551627159	34.9090898	-111.4387447	-2.19
1535745480.1	58.0	-0.0336915552616	-0.00758617371321	1.02565026283	34.9090899	-111.4387447	-2.18
1535745480.21	58.0	-0.0337056182325	-0.00762524828315	1.02580440044	34.9090899	-111.4387446	-2.17
1535745480.3	58.0	-0.033729057759	-0.00763486325741	1.02591884136	34.9090899	-111.4387446	-2.17
1535745480.41	58.0	-0.0337456874549	-0.0075865322724	1.02605748177	34.9090899	-111.4387446	-2.17
1535745480.51	58.0	-0.0337829627097	-0.00756576983258	1.02620637417	34.9090899	-111.4387445	-2.16
1535745480.6	58.0	-0.0338198207319	-0.00752536673099	1.02634930611	34.9090899	-111.4387444	-2.15
1535745480.7	58.0	-0.033832244575	-0.00746388640255	1.02647030354	34.9090899	-111.4387444	-2.15
1535745480.81	58.0	-0.0338641293347	-0.00744394864887	1.02660310268	34.9090899	-111.4387444	-2.15
1535745480.9	58.0	-0.0338657461107	-0.0074068531394	1.02675414085	34.9090899	-111.4387443	-2.14
1535745481.01	58.0	-0.0338496565819	-0.00740401819348	1.02691912651	34.9090898	-111.4387442	-2.13
1535745481.1	58.0	-0.0338507294655	-0.00739268679172	1.02709627151	34.9090898	-111.4387442	-2.13
1535745481.21	58.0	-0.0338414087892	-0.00739296991378	1.02724277973	34.9090898	-111.4387443	-2.12
1535745481.31	58.0	-0.0338089838624	-0.00740002235398	1.0273706913	34.9090898	-111.4387442	-2.12
1535745481.4	58.0	-0.0337707288563	-0.0074229426682	1.02754533291	34.9090898	-111.4387442	-2.11
1535745481.5	58.0	-0.0337083227932	-0.00744607485831	1.02769601345	34.9090898	-111.4387442	-2.11
1535745481.61	58.0	-0.0337079651654	-0.0074553526938	1.02782261372	34.9090897	-111.4387443	-2.1
1535745481.71	58.0	-0.0336502343416	-0.00744503643364	1.027977705	34.9090897	-111.4387443	-2.09
1535745481.81	58.0	-0.0335949771106	-0.00742546655238	1.0281368494	34.9090897	-111.4387442	-2.09
1535745481.9	58.0	-0.0335637256503	-0.00741557218134	1.02827870846	34.9090897	-111.4387442	-2.09
1535745482.0	58.0	-0.0335338041186	-0.00738443573937	1.02835977077	34.9090896	-111.4387442	-2.09
1535745482.1	58.0	-0.0334888584912	-0.0073961308226	1.0285128355	34.9090896	-111.4387442	-2.09
1535745482.2	58.0	-0.0334213189781	-0.00739405397326	1.02862823009	34.9090896	-111.4387443	-2.08
1535745482.31	58.0	-0.0334263034165	-0.0073982514441	1.0287553072	34.9090895	-111.4387443	-2.08
1535745482.4	58.0	-0.0334494151175	-0.0073781684041	1.02887797356	34.9090895	-111.4387443	-2.08
1535745482.5	58.0	-0.0334780290723	-0.00733968475834	1.02899646759	34.9090895	-111.4387442	-2.07
1535745482.61	58.0	-0.033477768302	-0.00729480525479	1.02911269665	34.9090894	-111.4387442	-2.06
1535745482.7	58.0	-0.0334901772439	-0.00727615272626	1.02922773361	34.9090894	-111.4387442	-2.05
1535745482.8	58.0	-0.033485610038	-0.00722887413576	1.02933144569	34.9090894	-111.4387442	-2.05
1535745482.9	58.0	-0.0334425270557	-0.007207818795	1.02942848206	34.9090893	-111.4387442	-2.04
1535745483.01	58.0	-0.0334227643907	-0.00719510344788	1.02956020832	34.9090893	-111.4387442	-2.03
1535745483.1	58.0	-0.0334125906229	-0.00723819434643	1.02968406677	34.9090893	-111.4387442	-2.03
1535745483.21	59.0	-0.0333925820887	-0.00723506277427	1.02982461452	34.9090892	-111.4387442	-2.02
1535745483.3	59.0	-0.0333657599986	-0.00720367860049	1.02994036674	34.9090892	-111.4387442	-2.02
1535745483.4	59.0	-0.0333209373057	-0.00718452315778	1.03007185459	34.9090892	-111.4387442	-2.01
1535745483.51	59.0	-0.0332835838199	-0.00715408427641	1.03014993668	34.909089	-111.4387442	-2.01
1535745483.6	59.0	-0.0332628823817	-0.00714210234582	1.03027033806	34.909089	-111.4387442	-2.01
1535745483.71	59.0	-0.0332337655127	-0.00710897427052	1.03038096428	34.909089	-111.4387442	-2.0
1535745483.8	59.0	-0.0332518704236	-0.00712195737287	1.0304954052	34.9090889	-111.4387441	-2.0
1535745483.9	59.0	-0.033216111362	-0.00713328877464	1.03063333035	34.9090889	-111.4387441	-2.0
1535745484.01	59.0	-0.0332550443709	-0.00716902781278	1.03073346615	34.9090888	-111.4387441	-2.0
1535745484.1	59.0	-0.0332066901028	-0.00715535646304	1.03084886074	34.9090888	-111.4387441	-2.0
1535745484.21	59.0	-0.0332022234797	-0.00715541187674	1.0309920311	34.9090888	-111.4387441	-2.0
1535745484.31	59.0	-0.0331844352186	-0.00718115037307	1.03111088276	34.9090887	-111.4387442	-2.0
1535745484.4	59.0	-0.0331670641899	-0.0071844398044	1.03122651577	34.9090887	-111.4387442	-2.0
1535745484.51	59.0	-0.0331656821072	-0.00718933995813	1.0313564539	34.9090886	-111.4387442	-2.0
1535745484.6	59.0	-0.0331356190145	-0.00717828096822	1.03146064281	34.9090886	-111.4387442	-2.0
1535745484.7	59.0	-0.0331017337739	-0.00718895252794	1.03159940243	34.9090886	-111.4387442	-2.0
1535745484.81	59.0	-0.0330679565668	-0.00719714490697	1.03172397614	34.9090885	-111.4387442	-2.0
1535745484.91	59.0	-0.0330810248852	-0.0071669286117	1.03185725212	34.9090884	-111.4387442	-2.0
1535745485.0	59.0	-0.0330550633371	-0.0071479761973	1.0319621563	34.9090884	-111.4387442	-2.0
1535745485.11	59.0	-0.0330502688885	-0.00713974051178	1.03206980228	34.9090883	-111.4387442	-2.0
1535745485.21	59.0	-0.0330369248986	-0.00712978467345	1.03221011162	34.9090882	-111.4387442	-1.99
1535745485.3	59.0	-0.0330087430775	-0.00713367201388	1.03233611584	34.9090881	-111.4387443	-1.99
1535745485.41	59.0	-0.0330188348889	-0.00713103078306	1.03246235847	34.9090881	-111.4387443	-1.99
1535745485.51	59.0	-0.0330078937113	-0.00708491401747	1.03256869316	34.909088	-111.4387443	-1.99
1535745485.6	59.0	-0.0330019183457	-0.00709529127926	1.03271126747	34.9090879	-111.4387443	-1.99
1535745485.71	59.0	-0.0329870805144	-0.00703409127891	1.03286588192	34.9090879	-111.4387443	-1.99
1535745485.81	59.0	-0.0329799763858	-0.00702606048435	1.03300261497	34.9090879	-111.4387443	-1.99
1535745485.9	59.0	-0.0329408682883	-0.00702520506456	1.03309082985	34.9090877	-111.4387444	-1.99
1535745486.01	59.0	-0.0329237803817	-0.00704748975113	1.03318154812	34.9090877	-111.4387444	-1.99
1535745486.1	59.0	-0.0329518429935	-0.00705473218113	1.03328418732	34.9090877	-111.4387444	-1.99
1535745486.21	59.0	-0.0330219045281	-0.00706876674667	1.03341794014	34.9090876	-111.4387444	-2.0
1535745486.31	59.0	-0.0330597646534	-0.00706635322422	1.03352379799	34.9090875	-111.4387444	-2.0
1535745486.4	59.0	-0.0330942347646	-0.00712859723717	1.03365981579	34.9090875	-111.4387444	-2.0
1535745486.51	59.0	-0.0330904833972	-0.00714515149593	1.03380095959	34.9090875	-111.4387445	-2.01
1535745486.61	59.0	-0.0330737419426	-0.00718312896788	1.03390753269	34.9090875	-111.4387445	-2.01
1535745486.7	59.0	-0.0330720953643	-0.00722737936303	1.03402554989	34.9090874	-111.4387445	-2.01
1535745486.81	59.0	-0.0331037379801	-0.00727964984253	1.03417062759	34.9090874	-111.4387445	-2.02
1535745486.91	59.0	-0.0331246852875	-0.0073086284101	1.034258008	34.9090874	-111.4387445	-2.02
1535745487.0	59.0	-0.0331012234092	-0.00731781078503	1.03436493874	34.9090873	-111.4387445	-2.02
1535745487.11	59.0	-0.0331136584282	-0.00729323970154	1.03448450565	34.9090872	-111.4387446	-2.02
1535745487.21	59.0	-0.0330962315202	-0.00728407502174	1.03460776806	34.9090872	-111.4387446	-2.02
1535745487.31	59.0	-0.0330910347402	-0.0072803189978	1.03472936153	34.9090872	-111.4387446	-2.02
1535745487.4	59.0	-0.0331127494574	-0.00731072667986	1.0348418951	34.9090871	-111.4387446	-2.02
1535745487.51	59.0	-0.0331065952778	-0.00730094639584	1.03496360779	34.9090871	-111.4387446	-2.02
1535745487.6	59.0	-0.0331279188395	-0.00730897067115	1.03507232666	34.9090871	-111.4387446	-2.02
1535745487.71	59.0	-0.0331134237349	-0.00731435324997	1.03518629074	34.909087	-111.4387446	-2.01
1535745487.81	59.0	-0.0331443957984	-0.00734997168183	1.03528654575	34.909087	-111.4387446	-2.01
1535745487.9	59.0	-0.0331747308373	-0.0073924404569	1.03541147709	34.909087	-111.4387446	-2.01
1535745488.0	59.0	-0.0332357399166	-0.00740699283779	1.03553342819	34.909087	-111.4387445	-2.01
1535745488.11	59.0	-0.0332548581064	-0.0074010733515	1.03564226627	34.909087	-111.4387445	-2.01
1535745488.21	59.0	-0.033234320581	-0.00739739090204	1.03574860096	34.9090869	-111.4387446	-2.02
1535745488.31	59.0	-0.0332379341125	-0.00738737732172	1.0358607769	34.9090869	-111.4387446	-2.03
1535745488.4	59.0	-0.0332651436329	-0.00739556970075	1.03595614433	34.9090869	-111.4387446	-2.03
1535745488.5	59.0	-0.0332782529294	-0.00741064408794	1.03606164455	34.9090869	-111.4387446	-2.03
1535745488.61	59.0	-0.0332556776702	-0.00739774294198	1.03616714478	34.9090868	-111.4387446	-2.04
1535745488.71	59.0	-0.0332738794386	-0.00743823684752	1.03627514839	34.9090868	-111.4387446	-2.04
1535745488.8	59.0	-0.0332709886134	-0.00744880875573	1.03635001183	34.9090868	-111.4387446	-2.04
1535745488.91	59.0	-0.0332872159779	-0.00749857816845	1.03646469116	34.9090868	-111.4387446	-2.05
1535745489.0	59.0	-0.0332880876958	-0.00753467064351	1.03657114506	34.9090868	-111.4387446	-2.05
1535745489.11	59.0	-0.0332603082061	-0.00752204004675	1.03668510914	34.9090868	-111.4387446	-2.05
1535745489.21	59.0	-0.0332542099059	-0.00752339884639	1.03681659698	34.9090867	-111.4387446	-2.06
1535745489.3	59.0	-0.0332656688988	-0.00751281576231	1.03691732883	34.9090867	-111.4387446	-2.06
1535745489.41	59.0	-0.0332817398012	-0.00752506870776	1.03703641891	34.9090867	-111.4387446	-2.06
1535745489.5	59.0	-0.0333000384271	-0.00750904995948	1.03714203835	34.9090866	-111.4387446	-2.06
1535745489.6	59.0	-0.0333159156144	-0.00747710093856	1.03723883629	34.9090866	-111.4387446	-2.06
1535745489.71	59.0	-0.0332905575633	-0.00748499529436	1.03733980656	34.9090866	-111.4387446	-2.06
1535745489.81	59.0	-0.0333227179945	-0.00746374763548	1.03742313385	34.9090865	-111.4387445	-2.06
1535745489.9	59.0	-0.0333269946277	-0.00743963755667	1.0375264883	34.9090865	-111.4387445	-2.06
1535745490.01	59.0	-0.0333997346461	-0.00741867069155	1.03761672974	34.9090865	-111.4387445	-2.06
1535745490.1	59.0	-0.0334043651819	-0.00740026496351	1.03772819042	34.9090865	-111.4387445	-2.06
1535745490.21	59.0	-0.0334511063993	-0.00741113862023	1.03784370422	34.9090865	-111.4387445	-2.07
1535745490.3	59.0	-0.0334417074919	-0.00739837717265	1.03794753551	34.9090864	-111.4387444	-2.07
1535745490.4	59.0	-0.0334521122277	-0.00737447291613	1.0380603075	34.9090864	-111.4387445	-2.08
1535745490.51	59.0	-0.0333752632141	-0.00736151728779	1.03813958168	34.9090863	-111.4387444	-2.08
1535745490.61	59.0	-0.0334042534232	-0.00737974699587	1.0382630825	34.9090863	-111.4387444	-2.08
1535745490.7	59.0	-0.0333403460681	-0.00738311838359	1.03835701942	34.9090863	-111.4387444	-2.08
1535745490.8	59.0	-0.0333837084472	-0.00741835311055	1.03849029541	34.9090863	-111.4387443	-2.09
1535745490.91	59.0	-0.0333905145526	-0.00744557799771	1.03860974312	34.9090862	-111.4387443	-2.09
1535745491.01	59.0	-0.0334446914494	-0.00747672934085	1.0387096405	34.9090862	-111.4387443	-2.09
1535745491.1	59.0	-0.0335007123649	-0.00754881836474	1.03883361816	34.9090863	-111.4387443	-2.09
1535745491.21	59.0	-0.0334837622941	-0.0075921388343	1.03892672062	34.9090863	-111.4387443	-2.09
1535745491.3	59.0	-0.0335213951766	-0.00756665738299	1.0390304327	34.9090863	-111.4387443	-2.09
1535745491.4	59.0	-0.0335134230554	-0.00760963000357	1.03915190697	34.9090863	-111.4387443	-2.09
1535745491.51	59.0	-0.0335746183991	-0.00766937620938	1.03927052021	34.9090863	-111.4387442	-2.08
1535745491.6	59.0	-0.033574115485	-0.00771721918136	1.03936123848	34.9090863	-111.4387442	-2.08
1535745491.7	59.0	-0.0335509441793	-0.00775126228109	1.03946220875	34.9090863	-111.4387442	-2.08
1535745491.81	59.0	-0.0335692763329	-0.00776541605592	1.03957009315	34.9090863	-111.4387442	-2.07
1535745491.91	59.0	-0.0335861295462	-0.00776415970176	1.03966450691	34.9090863	-111.4387443	-2.07
1535745492.0	59.0	-0.0335684977472	-0.00776726333424	1.03976905346	34.9090863	-111.4387443	-2.07
1535745492.11	59.0	-0.0335349999368	-0.00775394774973	1.03986144066	34.9090862	-111.4387443	-2.07
1535745492.21	59.0	-0.0335026942194	-0.00774000585079	1.03995001316	34.9090862	-111.4387443	-2.07
1535745492.3	59.0	-0.0335284993052	-0.00776913063601	1.04007995129	34.9090862	-111.4387442	-2.07
1535745492.4	59.0	-0.0335142239928	-0.00778204901144	1.04017555714	34.9090862	-111.4387443	-2.06
1535745492.51	59.0	-0.0335368439555	-0.00776919536293	1.0402610302	34.9090862	-111.4387443	-2.06
1535745492.6	59.0	-0.0335496515036	-0.00778697896749	1.04035902023	34.9090862	-111.4387443	-2.05
1535745492.7	59.0	-0.0335109233856	-0.00780252879485	1.04047787189	34.9090861	-111.4387444	-2.04
1535745492.81	59.0	-0.0334994159639	-0.00782121159136	1.04059755802	34.9090861	-111.4387444	-2.03
1535745492.9	59.0	-0.0334367677569	-0.00785941444337	1.04075241089	34.9090861	-111.4387444	-2.03
1535745493.01	59.0	-0.0334172397852	-0.00788805168122	1.04088461399	34.9090861	-111.4387444	-2.03
1535745493.1	59.0	-0.0333895012736	-0.00791678018868	1.04098773003	34.9090861	-111.4387445	-2.01
1535745493.21	59.0	-0.0333644859493	-0.00791468657553	1.04108333588	34.9090861	-111.4387445	-2.01
1535745493.3	59.0	-0.0333696044981	-0.0079496614635	1.04117953777	34.9090861	-111.4387445	-2.0
1535745493.4	59.0	-0.0333446897566	-0.00796066783369	1.04126048088	34.9090861	-111.4387445	-1.99
1535745493.51	59.0	-0.0333705693483	-0.00798176508397	1.04136264324	34.9090861	-111.4387446	-1.98
1535745493.61	59.0	-0.0333348251879	-0.00797089468688	1.04145216942	34.9090861	-111.4387446	-1.98
1535745493.7	59.0	-0.0333161316812	-0.0079794600606	1.04154443741	34.9090861	-111.4387446	-1.97
1535745493.81	59.0	-0.0333441719413	-0.00797433406115	1.04165542126	34.909086	-111.4387446	-1.96
1535745493.9	59.0	-0.0332965329289	-0.00799043104053	1.04171955585	34.909086	-111.4387446	-1.96
1535745494.0	59.0	-0.0332788676023	-0.00801043398678	1.04181993008	34.9090859	-111.4387447	-1.95
1535745494.11	59.0	-0.0332374721766	-0.0080158803612	1.04192781448	34.9090859	-111.4387447	-1.95
1535745494.2	59.0	-0.0332034900784	-0.00800738483667	1.04201221466	34.9090859	-111.4387448	-1.94
1535745494.3	59.0	-0.0331958942115	-0.00804020557553	1.04211652279	34.9090858	-111.4387449	-1.92
1535745494.41	59.0	-0.0331526622176	-0.00800417084247	1.04222178459	34.9090858	-111.4387449	-1.92
1535745494.5	59.0	-0.0330746993423	-0.00800395663828	1.04232001305	34.9090858	-111.4387449	-1.91
1535745494.6	59.0	-0.0331318341196	-0.00800917111337	1.04243075848	34.9090857	-111.4387449	-1.89
1535745494.71	59.0	-0.0330215543509	-0.00799285341054	1.04252970219	34.9090857	-111.438745	-1.88
1535745494.8	59.0	-0.0330672711134	-0.00796320941299	1.04264330864	34.9090857	-111.438745	-1.88
1535745494.9	59.0	-0.0329886414111	-0.00796545296907	1.04270088673	34.9090856	-111.4387451	-1.85
1535745495.01	59.0	-0.0330289453268	-0.00798704382032	1.04282701015	34.9090856	-111.4387451	-1.84
1535745495.1	59.0	-0.032941352576	-0.00796694308519	1.04295265675	34.9090856	-111.4387451	-1.84
1535745495.2	59.0	-0.0329391732812	-0.00803567096591	1.04303467274	34.9090856	-111.4387452	-1.82
1535745495.31	59.0	-0.0328291878104	-0.00805728696287	1.04310262203	34.9090855	-111.4387453	-1.8
1535745495.41	59.0	-0.0327931270003	-0.00806208886206	1.04323172569	34.9090854	-111.4387453	-1.79
1535745495.5	59.0	-0.032713662833	-0.00804036855698	1.04331290722	34.9090854	-111.4387453	-1.79
1535745495.6	59.0	-0.0327020585537	-0.00800401996821	1.04339551926	34.9090854	-111.4387454	-1.78
1535745495.71	59.0	-0.032657366246	-0.0079565839842	1.04349207878	34.9090853	-111.4387455	-1.76
1535745495.81	59.0	-0.0326243788004	-0.00798691529781	1.04353547096	34.9090853	-111.4387455	-1.75
1535745495.9	59.0	-0.03262706846	-0.00799047295004	1.04360532761	34.9090853	-111.4387455	-1.75
1535745496.0	59.0	-0.0325924083591	-0.00798986200243	1.04371917248	34.9090852	-111.4387456	-1.73
1535745496.11	59.0	-0.0326346829534	-0.00800060108304	1.04377222061	34.9090851	-111.4387457	-1.72
1535745496.21	59.0	-0.0326088145375	-0.008006375283	1.04383575916	34.9090851	-111.4387457	-1.72
1535745496.3	59.0	-0.0325987525284	-0.00799058191478	1.04393434525	34.909085	-111.4387458	-1.7
1535745496.41	59.0	-0.0326002910733	-0.00800449959934	1.04404580593	34.909085	-111.4387458	-1.69
1535745496.5	59.0	-0.0325478687882	-0.00799599569291	1.0441519022	34.909085	-111.4387458	-1.69
1535745496.6	59.0	-0.0325030237436	-0.00800510123372	1.04424500465	34.9090849	-111.4387459	-1.68
1535745496.71	59.0	-0.0326122604311	-0.00800366140902	1.04432332516	34.9090849	-111.438746	-1.67
1535745496.8	59.0	-0.0325039513409	-0.00803809426725	1.04439878464	34.9090849	-111.438746	-1.67
1535745496.9	59.0	-0.0324604809284	-0.00803779903799	1.04446721077	34.9090848	-111.4387461	-1.65
1535745497.0	59.0	-0.0324891060591	-0.00809439364821	1.04460585117	34.9090848	-111.4387461	-1.64
1535745497.11	59.0	-0.0325445756316	-0.00809800624847	1.04470455647	34.9090847	-111.4387462	-1.64
1535745497.2	59.0	-0.0326197557151	-0.00813273247331	1.04476869106	34.9090847	-111.4387462	-1.64
1535745497.31	59.0	-0.0326006002724	-0.00814628694206	1.04488873482	34.9090847	-111.4387462	-1.63
1535745497.41	59.0	-0.0326407849789	-0.00817663129419	1.04497659206	34.9090846	-111.4387463	-1.62
1535745497.5	59.0	-0.0326427556574	-0.00818587653339	1.04508161545	34.9090846	-111.4387463	-1.62
1535745497.6	59.0	-0.0326232537627	-0.00816489942372	1.04518258572	34.9090846	-111.4387464	-1.62
1535745497.71	59.0	-0.0325790755451	-0.0081590488553	1.04529130459	34.9090845	-111.4387464	-1.61
1535745497.8	59.0	-0.0326014570892	-0.0081450054422	1.04541993141	34.9090844	-111.4387465	-1.61
1535745497.9	59.0	-0.0325519517064	-0.00810628943145	1.04547810555	34.9090844	-111.4387465	-1.61
1535745498.01	59.0	-0.0326064750552	-0.00809525325894	1.04560959339	34.9090843	-111.4387466	-1.6
1535745498.1	59.0	-0.0325678996742	-0.00803775433451	1.04571127892	34.9090842	-111.4387467	-1.6
1535745498.2	59.0	-0.0326025225222	-0.00801640748978	1.04579210281	34.9090842	-111.4387467	-1.6
1535745498.31	59.0	-0.0325498990715	-0.0079699838534	1.04588782787	34.9090842	-111.4387467	-1.6
1535745498.41	59.0	-0.0325835756958	-0.00793902203441	1.04603886604	34.9090841	-111.4387467	-1.6
1535745498.5	59.0	-0.0326019749045	-0.0079642329365	1.04612267017	34.909084	-111.4387468	-1.59
1535745498.6	59.0	-0.0325569808483	-0.00798719469458	1.04622161388	34.909084	-111.4387468	-1.59
1535745498.71	59.0	-0.0326056964695	-0.00797088909894	1.04632365704	34.9090839	-111.4387469	-1.57
1535745498.81	59.0	-0.0325582437217	-0.0079810814932	1.04638302326	34.9090839	-111.4387469	-1.57
1535745498.9	59.0	-0.0326034650207	-0.00802040006965	1.04650831223	34.9090838	-111.438747	-1.56
1535745499.01	59.0	-0.0326122269034	-0.00806776247919	1.04659330845	34.9090838	-111.438747	-1.56
1535745499.11	59.0	-0.0325793810189	-0.00806402228773	1.04666221142	34.9090838	-111.4387471	-1.56
1535745499.21	59.0	-0.0326723307371	-0.00806196965277	1.04679143429	34.9090838	-111.4387471	-1.56
1535745499.3	59.0	-0.0325937010348	-0.00802488718182	1.04684376717	34.9090837	-111.4387471	-1.55
1535745499.4	59.0	-0.0327484235168	-0.00803353264928	1.04692029953	34.9090836	-111.4387471	-1.55
1535745499.51	59.0	-0.0327323414385	-0.00802145339549	1.0470546484	34.9090836	-111.4387471	-1.55
1535745499.6	59.0	-0.0327127277851	-0.0080128852278	1.04714941978	34.9090836	-111.4387471	-1.55
1535745499.7	60.0	-0.0328478366137	-0.00800765771419	1.04723227024	34.9090836	-111.4387471	-1.54
1535745499.8	60.0	-0.0327572710812	-0.00798965990543	1.0472741127	34.9090835	-111.4387471	-1.53
1535745499.91	60.0	-0.0328510478139	-0.0080345980823	1.04740321636	34.9090835	-111.4387472	-1.53
1535745500.0	60.0	-0.0328348129988	-0.00806077383459	1.0474973917	34.9090835	-111.4387472	-1.53
1535745500.1	60.0	-0.0328168161213	-0.00808295793831	1.04758608341	34.9090834	-111.4387472	-1.53
1535745500.21	60.0	-0.0327935442328	-0.00810246076435	1.04773116112	34.9090834	-111.4387472	-1.53
1535745500.3	60.0	-0.0327935442328	-0.00810246076435	1.04773116112	34.9090834	-111.4387472	0.0
1535745500.4	60.0	-0.0328013263643	-0.00810660328716	1.04783773422	34.9090834	-111.4387472	0.0
1535745500.51	60.0	-0.0327592641115	-0.00815564207733	1.04795670509	34.9090833	-111.4387473	0.0
1535745500.6	60.0	-0.0328676737845	-0.00816539488733	1.04813027382	34.9090833	-111.4387473	0.0
1535745500.71	60.0	-0.0328176356852	-0.00823642872274	1.04818940163	34.9090833	-111.4387473	0.0
1535745500.8	60.0	-0.0330283083022	-0.00827614869922	1.04830932617	34.9090833	-111.4387473	0.0
1535745500.9	60.0	-0.0328830480576	-0.00827919133008	1.04839837551	34.9090833	-111.4387472	0.0
1535745501.01	60.0	-0.0331296250224	-0.00830111186951	1.04848480225	34.9090833	-111.4387473	0.01
1535745501.1	60.0	-0.0329506210983	-0.00828721188009	1.04861879349	34.9090833	-111.4387472	0.01
1535745501.21	60.0	-0.0329506210983	-0.00828721188009	1.04861879349	34.9090833	-111.4387472	0.02
1535745501.31	60.0	-0.033187545836	-0.00832670740783	1.04878687859	34.9090833	-111.4387472	0.02
1535745501.4	60.0	-0.0332207344472	-0.00831868685782	1.04899311066	34.9090833	-111.4387472	0.02
1535745501.51	60.0	-0.0332207344472	-0.00831868685782	1.04899311066	34.9090834	-111.4387471	0.03
1535745501.61	60.0	-0.0331717506051	-0.00828940421343	1.04911673069	34.9090834	-111.4387471	0.03
1535745501.7	60.0	-0.0333567112684	-0.00825718510896	1.04920363426	34.9090834	-111.438747	0.03
1535745501.8	60.0	-0.0332403890789	-0.00820645131171	1.04927945137	34.9090834	-111.438747	0.03
1535745501.91	60.0	-0.033303078264	-0.00818449258804	1.0494093895	34.9090834	-111.438747	0.04
1535745502.0	60.0	-0.0333019159734	-0.00816547311842	1.04946386814	34.9090834	-111.4387469	0.04
1535745502.11	60.0	-0.0332986488938	-0.00816678348929	1.04963254929	34.9090834	-111.4387469	0.05
1535745502.21	60.0	-0.0333258993924	-0.00817493908107	1.04972410202	34.9090834	-111.4387469	0.06
1535745502.3	60.0	-0.0333258993924	-0.00817493908107	1.04972410202	34.9090834	-111.4387469	0.06
1535745502.41	60.0	-0.0332762822509	-0.00819563213736	1.04954886436	34.9090834	-111.4387468	0.07
1535745502.51	60.0	-0.033494066447	-0.00813268404454	1.05016314983	34.9090833	-111.4387468	0.07
1535745502.6	60.0	-0.033494066447	-0.00813268404454	1.05016314983	34.9090834	-111.4387467	0.08
1535745502.71	60.0	-0.0331228300929	-0.00816671084613	1.05007278919	34.9090834	-111.4387467	0.08
1535745502.81	60.0	-0.0329191535711	-0.00809007138014	1.05027115345	34.9090834	-111.4387466	0.09
1535745502.9	60.0	-0.0329191535711	-0.00809007138014	1.05027115345	34.9090834	-111.4387466	0.09
1535745503.01	60.0	-0.0329422391951	-0.00808620173484	1.05055761337	34.9090834	-111.4387466	0.08
1535745503.1	60.0	-0.0325040668249	-0.00823006872088	1.0506234169	34.9090834	-111.4387465	0.1
1535745503.2	60.0	-0.0327512584627	-0.00804198440164	1.05049943924	34.9090834	-111.4387465	0.1
1535745503.31	60.0	-0.0323981791735	-0.00808899756521	1.05070614815	34.9090835	-111.4387464	0.09
1535745503.4	60.0	-0.032994247973	-0.00810079090297	1.0508711338	34.9090835	-111.4387464	0.09
1535745503.5	60.0	-0.0329671688378	-0.00801571179181	1.05093061924	34.9090835	-111.4387463	0.08
1535745503.61	60.0	-0.0325445234776	-0.00797284394503	1.0507569313	34.9090835	-111.4387463	0.09
1535745503.71	60.0	-0.0329254977405	-0.00802783947438	1.05102610588	34.9090835	-111.4387462	0.08
1535745503.8	60.0	-0.0322954282165	-0.00792116671801	1.05105865002	34.9090835	-111.4387461	0.08
1535745503.9	60.0	-0.0331301391125	-0.00800907984376	1.05122375488	34.9090835	-111.4387461	0.07
1535745504.0	60.0	-0.0326041616499	-0.00794434919953	1.05114865303	34.9090836	-111.438746	0.07
1535745504.11	60.0	-0.0331689789891	-0.0080344947055	1.05139768124	34.9090836	-111.438746	0.06
1535745504.21	60.0	-0.0331689789891	-0.0080344947055	1.05139768124	34.9090836	-111.438746	0.06
1535745504.3	60.0	-0.032679349184	-0.00810950994492	1.05167675018	34.9090836	-111.4387459	0.05
1535745504.41	60.0	-0.0328838415444	-0.00813144724816	1.0517989397	34.9090837	-111.4387458	0.05
1535745504.51	60.0	-0.0329903401434	-0.00819813925773	1.05185508728	34.9090837	-111.4387458	0.04
1535745504.6	60.0	-0.0331635810435	-0.00815636757761	1.05187165737	34.9090837	-111.4387457	0.03
1535745504.71	60.0	-0.0328754708171	-0.00817809067667	1.05199086666	34.9090837	-111.4387457	0.03
1535745504.81	60.0	-0.0328754708171	-0.00817809067667	1.05199086666	34.9090837	-111.4387457	0.03
1535745504.91	60.0	-0.0330776125193	-0.00808819849044	1.05209195614	34.9090838	-111.4387456	0.02
1535745505.01	60.0	-0.032792031765	-0.00808615982533	1.05214357376	34.9090838	-111.4387456	0.02
1535745505.1	60.0	-0.0327531807125	-0.00817285850644	1.05225467682	34.9090838	-111.4387456	0.01
1535745505.21	60.0	-0.0330724455416	-0.00805004313588	1.05229043961	34.9090838	-111.4387455	0.01
1535745505.3	60.0	-0.0326575674117	-0.0081952335313	1.05235779285	34.9090839	-111.4387455	0.01
1535745505.4	60.0	-0.0325593352318	-0.0081671429798	1.05250394344	34.9090839	-111.4387455	0.02
1535745505.51	60.0	-0.0325593352318	-0.0081671429798	1.05250394344	34.9090839	-111.4387455	0.01
1535745505.61	60.0	-0.0323478803039	-0.00827361736447	1.05256533623	34.9090839	-111.4387455	0.02
1535745505.71	60.0	-0.0323478803039	-0.00827361736447	1.05256533623	34.9090839	-111.4387455	0.01
1535745505.8	60.0	-0.0328465178609	-0.00817469973117	1.0526599884	34.9090839	-111.4387455	0.02
1535745505.9	60.0	-0.0324764400721	-0.00821590796113	1.05269300938	34.9090839	-111.4387455	0.02
1535745506.01	60.0	-0.0328557863832	-0.00816823169589	1.05288648605	34.9090839	-111.4387455	0.02
1535745506.1	60.0	-0.0326698049903	-0.00828295666724	1.05303347111	34.9090839	-111.4387455	0.02
1535745506.21	60.0	-0.0374518893659	-0.00833694916219	1.05383992195	34.9090839	-111.4387456	0.01
1535745506.31	60.0	-0.0428793877363	-0.00853538699448	1.05491399765	34.9090839	-111.4387456	0.01
1535745506.4	60.0	-0.0428793877363	-0.00853538699448	1.05491399765	34.9090839	-111.4387455	0.02
1535745506.5	60.0	-0.0473497658968	-0.0086013302207	1.05625283718	34.9090839	-111.4387456	0.01
1535745506.61	60.0	-0.0516545623541	-0.00860990863293	1.0576390028	34.9090839	-111.4387455	0.01
1535745506.7	60.0	-0.0569777041674	-0.00960637908429	1.05996227264	34.9090839	-111.4387455	0.02
1535745506.81	60.0	-0.0641860887408	-0.0112398611382	1.05675387383	34.909084	-111.4387455	0.01
1535745506.91	61.0	-0.0759232416749	-0.0108146155253	1.06301343441	34.909084	-111.4387455	0.01
1535745507.0	61.0	-0.0850181132555	0.0084614250809	1.06973814964	34.909084	-111.4387454	0.0
1535745507.11	61.0	-0.0701711550355	0.0196516048163	1.0764683485	34.9090841	-111.4387452	-0.01
1535745507.21	61.0	-0.052244156599	0.0159798823297	1.08189535141	34.9090842	-111.4387449	-0.01
1535745507.3	62.0	-0.0202650725842	0.00439996132627	1.08419942856	34.9090843	-111.4387445	-0.01
1535745507.41	62.0	0.01094446145	-0.0186239238828	1.08994483948	34.9090844	-111.4387441	0.01
1535745507.51	62.0	0.0302374213934	-0.00584945548326	1.09125494957	34.9090846	-111.4387435	0.05
1535745507.6	62.0	0.0302374213934	-0.00584945548326	1.09125494957	34.9090847	-111.438743	0.14
1535745507.7	62.0	0.0381349176168	-0.017380874604	1.09286832809	34.9090848	-111.4387427	0.24
1535745507.81	62.0	0.0384398177266	-0.0139991492033	1.09146916866	34.909085	-111.4387425	0.37
1535745507.91	62.0	0.0384398177266	-0.0139991492033	1.09146916866	34.9090851	-111.4387423	0.54
1535745508.0	62.0	0.0334688127041	-0.00795102026314	1.0927323103	34.9090851	-111.4387423	0.54
1535745508.11	62.0	0.0225129537284	-0.000163950026035	1.09084272385	34.9090853	-111.4387421	0.75
1535745508.21	62.0	0.0104924710467	-0.00615338934585	1.08921015263	34.9090854	-111.4387421	0.94
1535745508.3	62.0	0.0104924710467	-0.00615338934585	1.08921015263	34.9090856	-111.438742	1.22
1535745508.4	62.0	0.0103575084358	-0.00845576263964	1.08737754822	34.9090858	-111.438742	1.46
1535745508.51	62.0	0.00248288456351	0.0177529025823	1.08550012112	34.909086	-111.438742	1.67
1535745508.6	62.0	-0.00863232742995	0.034430924803	1.08391654491	34.9090862	-111.4387419	1.9
1535745508.7	62.0	-0.0136697394773	0.0520766302943	1.08292758465	34.9090863	-111.4387419	2.11
1535745508.81	62.0	-0.00625293981284	0.0485114641488	1.0825356245	34.9090864	-111.4387417	2.39
1535745508.91	62.0	-0.00048129633069	0.021998219192	1.08446764946	34.9090864	-111.4387417	2.39
1535745509.0	62.0	0.0022609969601	0.00600707577541	1.08375239372	34.9090865	-111.4387415	2.68
1535745509.1	62.0	0.0022609969601	0.00600707577541	1.08375239372	34.9090866	-111.4387412	2.99
1535745509.21	62.0	0.0316121205688	0.00707024289295	1.0861992836	34.9090866	-111.4387409	3.24
1535745509.31	62.0	0.0316121205688	0.00707024289295	1.0861992836	34.9090866	-111.4387407	3.47
1535745509.4	61.0	0.0393758378923	0.0140497665852	1.08459329605	34.9090866	-111.4387404	3.7
1535745509.51	61.0	0.0484370216727	0.00913204438984	1.07108747959	34.9090866	-111.4387402	3.93
1535745509.61	61.0	0.0484370216727	0.00913204438984	1.07108747959	34.9090865	-111.43874	4.17
1535745509.7	61.0	0.0513353422284	-0.00347564136609	1.07320535183	34.9090864	-111.4387398	4.4
1535745509.81	61.0	0.0507476851344	-0.0223386976868	1.07515966892	34.9090862	-111.4387397	4.65
1535745509.91	61.0	0.043596919626	-0.0280789993703	1.07630491257	34.909086	-111.4387396	4.93
1535745510.01	61.0	0.0226839631796	-0.0288111213595	1.08126366138	34.9090859	-111.4387396	5.19
1535745510.11	62.0	0.0102676572278	-0.033949162811	1.08434951305	34.9090857	-111.4387396	5.43
1535745510.2	62.0	-0.000910403206944	-0.0524643622339	1.08568489552	34.9090856	-111.4387396	5.67
1535745510.3	62.0	0.00631041638553	-0.0416757129133	1.08456587791	34.9090855	-111.4387395	5.9
1535745510.41	62.0	0.00726168090478	-0.0398311577737	1.12652730942	34.9090855	-111.4387395	5.9
1535745510.51	64.0	0.0122728673741	-0.0504497140646	1.12595152855	34.9090854	-111.4387395	6.21
1535745510.6	64.0	0.0122728673741	-0.0504497140646	1.12595152855	34.9090854	-111.4387395	6.54
1535745510.7	64.0	0.0217746347189	-0.0413707569242	1.12545585632	34.9090854	-111.4387394	6.77
1535745510.81	64.0	0.0276234000921	-0.0525946579874	1.12196910381	34.9090854	-111.4387394	7.01
1535745510.91	64.0	0.0276471301913	-0.061039827764	1.12080442905	34.9090855	-111.4387394	7.24
1535745511.0	64.0	0.0361056476831	-0.0402697920799	1.11655473709	34.9090856	-111.4387393	7.53
1535745511.1	63.0	0.0361056476831	-0.0402697920799	1.11655473709	34.9090856	-111.4387393	7.53
1535745511.21	63.0	0.0398948565125	-0.00816168729216	1.11683821678	34.9090858	-111.4387393	8.0
1535745511.3	63.0	0.0398948565125	-0.00816168729216	1.11683821678	34.9090858	-111.4387393	8.0
1535745511.4	63.0	0.0485498830676	-0.0179621148854	1.1167678833	34.9090859	-111.4387393	8.53
1535745511.51	64.0	0.0505449585617	-0.00749719049782	1.11996626854	34.9090859	-111.4387393	8.53
1535745511.61	64.0	0.0369693413377	-0.0114070829004	1.12130737305	34.9090859	-111.4387393	8.77
1535745511.7	64.0	0.0377655290067	-0.0291077960283	1.12096369267	34.9090859	-111.4387392	9.01
1535745511.81	64.0	0.041877951473	-0.0361555963755	1.12153911591	34.9090859	-111.4387392	9.25
1535745511.91	64.0	0.0456571914256	-0.0414048992097	1.12155997753	34.9090859	-111.4387391	9.52
1535745512.01	64.0	0.0627059489489	-0.0404775775969	1.12048399448	34.9090859	-111.438739	9.81
1535745512.1	64.0	0.0583330579102	-0.0423792563379	1.12146830559	34.9090859	-111.4387389	10.05
1535745512.2	64.0	0.0569159984589	-0.0449295267463	1.1213259697	34.9090859	-111.4387388	10.28
1535745512.31	64.0	0.0569159984589	-0.0449295267463	1.1213259697	34.9090859	-111.4387388	10.56
1535745512.41	64.0	0.0603208057582	-0.0406528040767	1.12202203274	34.9090859	-111.4387387	10.78
1535745512.5	64.0	0.0591310970485	-0.0248622242361	1.1216571331	34.9090859	-111.4387386	11.01
1535745512.6	64.0	0.0624778978527	-0.028142189607	1.11973214149	34.9090859	-111.4387386	11.01
1535745512.71	64.0	0.060505669564	-0.0433626510203	1.12120604515	34.9090858	-111.4387386	11.47
1535745512.8	64.0	0.0548999197781	-0.0441472642124	1.12220001221	34.9090858	-111.4387385	11.7
1535745512.9	64.0	0.0543365962803	-0.0494406186044	1.1238925457	34.9090858	-111.4387385	11.92
1535745513.01	64.0	0.0543365962803	-0.0494406186044	1.1238925457	34.9090858	-111.4387385	11.92
1535745513.11	64.0	0.0472779236734	-0.0618422664702	1.12610554695	34.9090858	-111.4387385	12.16
1535745513.2	64.0	0.0531292259693	-0.0830582156777	1.12426185608	34.9090861	-111.4387386	12.62
1535745513.31	64.0	0.0548463314772	-0.0867910459638	1.11982154846	34.9090861	-111.4387386	12.62
1535745513.41	63.0	0.0598031841218	-0.0486165322363	1.1120865345	34.9090863	-111.4387387	12.86
1535745513.5	63.0	0.0600135177374	-0.0146657191217	1.11093854904	34.9090866	-111.4387388	13.14
1535745513.61	63.0	0.0600135177374	-0.0146657191217	1.11093854904	34.909087	-111.438739	13.44
1535745513.71	63.0	0.0561316348612	0.0019104918465	1.11112833023	34.9090873	-111.4387392	13.68
1535745513.8	63.0	0.0513112470508	0.00663475273177	1.11445617676	34.9090877	-111.4387394	13.98
1535745513.9	63.0	0.0433078035712	0.0146171916276	1.11574089527	34.9090879	-111.4387395	14.23
1535745514.01	63.0	0.0441296212375	0.0262591224164	1.11529433727	34.9090879	-111.4387395	14.23
1535745514.1	63.0	0.0505650453269	0.0346744284034	1.11349880695	34.9090882	-111.4387397	14.52
1535745514.2	63.0	0.0521813444793	0.0373621992767	1.11275279522	34.9090885	-111.4387398	14.8
1535745514.31	63.0	0.0521813444793	0.0373621992767	1.11275279522	34.9090887	-111.4387399	15.09
1535745514.4	63.0	0.0565857030451	0.0372639410198	1.11336135864	34.9090888	-111.4387399	15.32
1535745514.51	63.0	0.0568781495094	0.0390673987567	1.11560511589	34.9090889	-111.4387399	15.58
1535745514.6	63.0	0.054336078465	0.0439003370702	1.11745607853	34.9090889	-111.4387399	15.58
1535745514.7	64.0	0.054232288152	0.0337089858949	1.11778569221	34.9090889	-111.4387399	16.08
1535745514.81	64.0	0.0531718656421	0.00914099253714	1.11765241623	34.9090889	-111.4387398	16.35
1535745514.9	64.0	0.0531718656421	0.00914099253714	1.11765241623	34.9090889	-111.4387398	16.35
1535745515.01	63.0	0.0620575286448	-2.52975150943e-05	1.11737012863	34.9090888	-111.4387398	16.58
1535745515.1	63.0	0.0646966695786	-0.00472309533507	1.11660706997	34.9090887	-111.4387397	16.8
1535745515.2	63.0	0.0602880641818	-0.0137943737209	1.11601495743	34.9090886	-111.4387397	17.06
1535745515.31	63.0	0.0564293079078	-0.0126565545797	1.11427927017	34.9090885	-111.4387398	17.27
1535745515.41	63.0	0.0462733954191	-0.0162222329527	1.11323237419	34.9090884	-111.4387398	17.47
1535745515.5	63.0	0.0465853661299	-0.0101475594565	1.11214733124	34.9090884	-111.4387398	17.67
1535745515.61	63.0	0.050405189395	-0.00146940397099	1.11187672615	34.9090883	-111.4387399	17.89
1535745515.7	63.0	0.0558328516781	-0.00658413209021	1.11167216301	34.9090883	-111.4387399	18.07
1535745515.8	63.0	0.0559895932674	-0.0101052541286	1.11142301559	34.9090882	-111.4387398	18.25
1535745515.91	63.0	0.0582800805569	-0.00793364178389	1.11123979092	34.9090882	-111.4387398	18.42
1535745516.01	63.0	0.058513097465	-0.00908797699958	1.10988688469	34.9090881	-111.4387398	18.58
1535745516.1	63.0	0.0514246299863	-0.0128514766693	1.11036515236	34.909088	-111.4387398	18.74
1535745516.21	63.0	0.0508893802762	-0.00194320036098	1.10980677605	34.909088	-111.4387398	18.89
1535745516.31	63.0	0.0492824427783	-0.000245306175202	1.1116540432	34.9090879	-111.4387397	19.04
1535745516.4	63.0	0.0512917600572	0.00309553975239	1.11306416988	34.9090879	-111.4387396	19.2
1535745516.5	63.0	0.0533124953508	-0.00416756840423	1.11455726624	34.9090878	-111.4387396	19.36
1535745516.61	63.0	0.0510943830013	-0.00672488519922	1.11512804031	34.9090878	-111.4387396	19.36
1535745516.7	63.0	0.0566044300795	-0.0039597065188	1.11586809158	34.9090877	-111.4387395	19.55
1535745516.81	63.0	0.0566044300795	-0.0039597065188	1.11586809158	34.9090877	-111.4387394	19.79
1535745516.91	63.0	0.05262703076	-0.00148783158511	1.11435711384	34.9090876	-111.4387393	20.0
1535745517.0	63.0	0.0476224571466	0.00149809662253	1.1134172678	34.9090876	-111.4387392	20.22
1535745517.1	63.0	0.0471962206066	0.00331892957911	1.11282372475	34.9090875	-111.4387392	20.46
1535745517.21	63.0	0.0421410053968	5.02713955939e-05	1.11236190796	34.9090874	-111.4387391	20.66
1535745517.3	63.0	0.0421410053968	5.02713955939e-05	1.11236190796	34.9090874	-111.4387391	20.66
1535745517.4	63.0	0.0357852205634	-0.004147995729	1.11250591278	34.9090873	-111.4387391	20.94
1535745517.51	63.0	0.0284428410232	0.00284544425085	1.11329293251	34.9090873	-111.438739	21.2
1535745517.61	63.0	0.0317875295877	0.00849572941661	1.11188697815	34.9090873	-111.4387389	21.4
1535745517.7	63.0	0.0408872738481	0.00196268502623	1.11131715775	34.9090873	-111.4387389	21.4
1535745517.8	63.0	0.0408872738481	0.00196268502623	1.11131715775	34.9090873	-111.4387388	21.66
1535745517.91	63.0	0.0487788654864	0.00236961664632	1.11071145535	34.9090872	-111.4387385	21.91
1535745518.01	63.0	0.0551439672709	0.00014725420624	1.11134386063	34.9090872	-111.4387382	22.2
1535745518.1	63.0	0.0597786679864	0.00245873024687	1.11074721813	34.9090871	-111.438738	22.4
1535745518.2	63.0	0.0625095143914	0.00267339171842	1.11040055752	34.909087	-111.4387378	22.64
1535745518.31	63.0	0.0625095143914	0.00267339171842	1.11040055752	34.909087	-111.4387378	22.64
1535745518.41	63.0	0.051744248718	-0.00773301720619	1.11149966717	34.9090869	-111.4387376	22.9
1535745518.5	63.0	0.0353822000325	-0.0156493708491	1.11435127258	34.9090868	-111.4387374	23.15
1535745518.61	63.0	0.0408486053348	-0.0206939168274	1.11429798603	34.9090868	-111.4387372	23.37
1535745518.7	63.0	0.0531156472862	-0.0137453023344	1.11257350445	34.9090868	-111.4387369	23.69
1535745518.81	63.0	0.057468213141	-0.00419366825372	1.11199975014	34.9090869	-111.4387367	23.91
1535745518.9	63.0	0.0490852482617	-0.00180176855065	1.11025726795	34.9090869	-111.4387365	24.14
1535745519.01	63.0	0.0500323958695	0.00425327429548	1.10853290558	34.909087	-111.4387363	24.42
1535745519.1	63.0	0.0500323958695	0.00425327429548	1.10853290558	34.909087	-111.4387363	24.42
1535745519.2	63.0	0.05462442711	0.0117779523134	1.10762119293	34.909087	-111.4387362	24.66
1535745519.31	63.0	0.0570700019598	0.011275652796	1.10823380947	34.9090871	-111.438736	24.89
1535745519.41	63.0	0.0664290934801	0.010283773765	1.10758471489	34.9090872	-111.4387357	25.18
1535745519.5	63.0	0.0727956220508	0.00878730416298	1.10811710358	34.9090873	-111.4387355	25.46
1535745519.6	63.0	0.0731352940202	0.00747177610174	1.10851573944	34.9090874	-111.4387353	25.79
1535745519.71	63.0	0.0783180519938	0.0104001220316	1.10870444775	34.9090874	-111.4387352	26.02
1535745519.8	63.0	0.0783180519938	0.0104001220316	1.10870444775	34.9090874	-111.4387352	26.02
1535745519.9	63.0	0.0650786012411	0.020184641704	1.10970771313	34.9090875	-111.4387351	26.29
1535745520.01	63.0	0.0593570172787	0.0253660045564	1.11104822159	34.9090876	-111.4387348	26.73
1535745520.11	63.0	0.0529802329838	0.0158409439027	1.1123329401	34.9090876	-111.4387348	26.73
1535745520.2	63.0	0.0501931086183	0.000454697292298	1.11230421066	34.9090876	-111.4387347	27.01
1535745520.31	63.0	0.052176695317	0.0019554477185	1.10965251923	34.9090876	-111.4387344	27.3
1535745520.41	63.0	0.052176695317	0.0019554477185	1.10965251923	34.9090876	-111.4387342	27.62
1535745520.5	63.0	0.0557838045061	0.00625094911084	1.11072456837	34.9090876	-111.4387342	27.62
1535745520.6	63.0	0.0534201078117	-0.00353279430419	1.11022973061	34.9090875	-111.438734	27.89
1535745520.71	63.0	0.0523313395679	0.000316239893436	1.11046338081	34.9090876	-111.4387337	28.17
1535745520.81	63.0	0.0570226572454	0.00427445257083	1.112834692	34.9090876	-111.4387335	28.4
1535745520.9	63.0	0.0570226572454	0.00427445257083	1.112834692	34.9090876	-111.4387332	28.69
1535745521.01	63.0	0.0553584210575	-0.0019569969736	1.11460614204	34.9090876	-111.4387332	28.69
1535745521.1	63.0	0.0612717680633	-0.00488266348839	1.11317443848	34.9090876	-111.4387329	29.02
1535745521.21	63.0	0.0674814879894	-0.000773018226027	1.11340069771	34.9090876	-111.4387327	29.25
1535745521.3	63.0	0.0687737390399	-0.00692428741604	1.11222660542	34.9090877	-111.4387324	29.52
1535745521.41	63.0	0.0706494003534	-0.00303048384376	1.1116079092	34.9090877	-111.4387321	29.79
1535745521.51	63.0	0.0706494003534	-0.00303048384376	1.1116079092	34.9090878	-111.4387319	30.02
1535745521.6	63.0	0.0749133676291	0.00623808568344	1.11302483082	34.9090879	-111.4387315	30.29
1535745521.7	63.0	0.0808150544763	0.011403542012	1.11274969578	34.909088	-111.4387313	30.52
1535745521.8	63.0	0.0838032588363	0.00806310400367	1.11481916904	34.909088	-111.4387313	30.52
1535745521.91	64.0	0.0842000618577	0.00160125968978	1.11755871773	34.9090881	-111.4387309	30.85
1535745522.01	64.0	0.0848708227277	-0.00801719352603	1.11772656441	34.9090882	-111.4387306	31.12
1535745522.1	64.0	0.0848016366363	0.00357680255547	1.11742961407	34.9090884	-111.4387304	31.4
1535745522.21	64.0	0.0848016366363	0.00357680255547	1.11742961407	34.9090885	-111.4387302	31.67
1535745522.3	63.0	0.085373558104	0.0141359232366	1.11580860615	34.9090885	-111.4387302	31.67
1535745522.4	63.0	0.0777489244938	0.0147088877857	1.11520349979	34.9090886	-111.4387301	31.9
1535745522.51	63.0	0.0680681318045	0.0128523539752	1.1119017601	34.9090888	-111.4387299	32.21
1535745522.61	63.0	0.0644474774599	0.0154349282384	1.10929846764	34.9090889	-111.4387298	32.47
1535745522.7	63.0	0.0644474774599	0.0154349282384	1.10929846764	34.909089	-111.4387297	32.74
1535745522.8	63.0	0.0640207529068	0.02845945023	1.10843873024	34.9090892	-111.4387295	33.01
1535745522.91	63.0	0.0583594404161	0.0433226637542	1.10808706284	34.9090892	-111.4387295	33.01
1535745523.0	63.0	0.0578167773783	0.0375456884503	1.10838234425	34.9090893	-111.4387294	33.28
1535745523.1	63.0	0.0631025806069	0.0319395251572	1.10808050632	34.9090893	-111.4387292	33.51
1535745523.21	63.0	0.0640601664782	0.0299433600157	1.10831594467	34.9090894	-111.4387291	33.73
1535745523.31	63.0	0.066085614264	0.0291814375669	1.10648179054	34.9090894	-111.4387289	33.96
1535745523.4	63.0	0.0631721615791	0.0263663101941	1.10550165176	34.9090895	-111.4387288	34.19
1535745523.51	63.0	0.0699520856142	0.0262368265539	1.10364186764	34.9090895	-111.4387285	34.47
1535745523.61	63.0	0.0699520856142	0.0262368265539	1.10364186764	34.9090895	-111.4387284	34.69
1535745523.7	63.0	0.0726529210806	0.0332616269588	1.10363066196	34.9090895	-111.4387282	34.91
1535745523.81	63.0	0.0710219964385	0.0339691750705	1.10165405273	34.9090895	-111.4387279	35.17
1535745523.91	63.0	0.0709396749735	0.0228026248515	1.10203433037	34.9090895	-111.4387279	35.17
1535745524.01	63.0	0.0703771039844	0.0320113115013	1.1029266119	34.9090894	-111.4387277	35.44
1535745524.11	63.0	0.0688436701894	0.0289584118873	1.1042252779	34.9090894	-111.4387275	35.66
1535745524.2	63.0	0.0659858733416	0.0204699393362	1.10474073887	34.9090892	-111.4387273	35.93
1535745524.3	63.0	0.0659858733416	0.0204699393362	1.10474073887	34.9090892	-111.438727	36.15
1535745524.41	63.0	0.0648576915264	0.0129445306957	1.10546112061	34.9090891	-111.4387269	36.37
1535745524.51	63.0	0.0661016777158	0.00576300499961	1.10492181778	34.909089	-111.4387267	36.6
1535745524.6	63.0	0.0661016777158	0.00576300499961	1.10492181778	34.909089	-111.4387266	36.82
1535745524.7	63.0	0.0580686964095	0.0149329528213	1.10268616676	34.9090889	-111.4387265	37.09
1535745524.81	63.0	0.0518127530813	0.0277881566435	1.10088145733	34.9090888	-111.4387264	37.34
1535745524.91	63.0	0.0464692637324	0.031704057008	1.10047852993	34.9090888	-111.4387264	37.34
1535745525.0	63.0	0.0400550216436	0.0219560470432	1.1024864912	34.9090887	-111.4387262	37.64
1535745525.1	63.0	0.0400550216436	0.0219560470432	1.1024864912	34.9090887	-111.438726	37.89
1535745525.21	63.0	0.0422656349838	0.0169381089509	1.10227370262	34.9090887	-111.4387259	38.1
1535745525.31	63.0	0.04444790259	0.0185127407312	1.10349011421	34.9090887	-111.4387257	38.36
1535745525.4	63.0	0.0459096133709	0.0204208306968	1.10367357731	34.9090887	-111.4387257	38.36
1535745525.5	63.0	0.0467418394983	0.0205823406577	1.10315704346	34.9090887	-111.4387253	38.84
1535745525.61	63.0	0.0435810685158	0.0194950420409	1.1038172245	34.9090887	-111.4387253	38.84
1535745525.71	63.0	0.0498875230551	0.0170031115413	1.10390388966	34.9090887	-111.438725	39.14
1535745525.8	63.0	0.0498875230551	0.0170031115413	1.10390388966	34.9090887	-111.4387248	39.4
1535745525.9	63.0	0.0470769815147	0.0164938326925	1.1051838398	34.9090888	-111.4387246	39.63
1535745526.01	63.0	0.0502777099609	0.0246856734157	1.10360467434	34.9090889	-111.4387244	39.84
1535745526.11	63.0	0.0540695860982	0.030707994476	1.10354459286	34.909089	-111.4387242	40.05
1535745526.2	63.0	0.0555555894971	0.0347533635795	1.10312056541	34.9090891	-111.438724	40.27
1535745526.31	63.0	0.0592181570828	0.0417822338641	1.10269987583	34.9090892	-111.4387237	40.5
1535745526.41	63.0	0.0601211413741	0.0444978661835	1.10104286671	34.9090893	-111.4387234	40.76
1535745526.5	63.0	0.064038194716	0.0464354157448	1.10011696815	34.9090893	-111.4387234	40.76
1535745526.6	63.0	0.0680838823318	0.0396961122751	1.10119140148	34.9090895	-111.4387229	41.21
1535745526.71	63.0	0.0677090510726	0.0289329905063	1.10251569748	34.9090895	-111.4387226	41.44
1535745526.8	63.0	0.0677090510726	0.0289329905063	1.10251569748	34.9090896	-111.4387223	41.72
1535745526.9	63.0	0.0725668519735	0.0268759001046	1.10441839695	34.9090896	-111.4387223	41.72
1535745527.0	63.0	0.0684531256557	0.0323181636631	1.10364329815	34.9090896	-111.4387221	41.99
1535745527.1	63.0	0.0703446418047	0.0520143210888	1.10304379463	34.9090897	-111.4387219	42.22
1535745527.21	63.0	0.0703446418047	0.0520143210888	1.10304379463	34.9090897	-111.4387216	42.48
1535745527.31	63.0	0.0741646438837	0.0451165698469	1.10201013088	34.9090897	-111.4387214	42.7
1535745527.4	63.0	0.0741646438837	0.0451165698469	1.10201013088	34.9090897	-111.4387212	42.96
1535745527.51	62.0	0.0660074800253	0.0682315453887	1.09738659859	34.9090897	-111.4387209	43.22
1535745527.61	62.0	0.0563586466014	0.0795186311007	1.09591972828	34.9090897	-111.4387209	43.22
1535745527.7	62.0	0.0533275045455	0.0532467141747	1.09952914715	34.9090896	-111.4387205	43.5
1535745527.8	63.0	0.0654595941305	0.0255774725229	1.10207188129	34.9090894	-111.4387201	43.73
1535745527.91	63.0	0.0682838186622	-0.00219311262481	1.10058605671	34.9090893	-111.4387196	43.97
1535745528.01	63.0	0.0682838186622	-0.00219311262481	1.10058605671	34.9090891	-111.4387192	44.2
1535745528.1	63.0	0.0819653049111	-0.0110851563513	1.10223662853	34.909089	-111.4387187	44.45
1535745528.21	63.0	0.0905163064599	-0.00981121882796	1.10554683208	34.909089	-111.4387183	44.69
1535745528.31	63.0	0.0943815857172	-0.0146647449583	1.10634958744	34.909089	-111.4387179	44.94
1535745528.4	63.0	0.105167500675	0.00252887560055	1.11237668991	34.909089	-111.4387176	45.15
1535745528.5	63.0	0.0994888618588	-0.00809520483017	1.11149263382	34.909089	-111.4387174	45.38
1535745528.61	63.0	0.0994888618588	-0.00809520483017	1.11149263382	34.909089	-111.4387171	45.6
1535745528.7	63.0	0.099914945662	0.00815621577203	1.10795331001	34.909089	-111.438717	45.83
1535745528.8	63.0	0.0930553078651	0.0183362103999	1.1062527895	34.9090891	-111.4387168	46.05
1535745528.91	63.0	0.0808319672942	0.0151438433677	1.10633742809	34.9090891	-111.4387167	46.29
1535745529.01	63.0	0.0808319672942	0.0151438433677	1.10633742809	34.9090891	-111.4387166	46.52
1535745529.1	63.0	0.0786160677671	0.0136257596314	1.10504579544	34.9090891	-111.4387166	46.75
1535745529.21	63.0	0.0717067494988	0.0179648343474	1.10423457623	34.9090892	-111.4387164	47.07
1535745529.3	63.0	0.0748171359301	0.0314130596817	1.10575306416	34.9090892	-111.4387164	47.07
1535745529.4	63.0	0.0732157379389	0.0259131472558	1.10608804226	34.9090892	-111.4387164	47.36
1535745529.51	63.0	0.0667393580079	0.017081335187	1.10681891441	34.9090892	-111.4387162	47.58
1535745529.6	63.0	0.0573710910976	0.0176462680101	1.10475349426	34.9090892	-111.4387161	47.8
1535745529.7	63.0	0.0577997304499	0.0208694785833	1.10422813892	34.9090892	-111.438716	48.03
1535745529.81	63.0	0.0618436709046	0.0192789044231	1.10550451279	34.9090892	-111.4387158	48.26
1535745529.9	63.0	0.0703932270408	0.0128239765763	1.10703647137	34.9090892	-111.4387156	48.49
1535745530.0	63.0	0.0711463987827	0.00405903207138	1.10909795761	34.9090892	-111.4387154	48.71
1535745530.11	63.0	0.0751420408487	0.00290251942351	1.11108732224	34.9090892	-111.4387151	48.94
1535745530.2	63.0	0.0773710981011	-0.00597158866003	1.11292719841	34.9090892	-111.4387149	49.17
1535745530.3	63.0	0.0882851481438	-0.00978455320001	1.11205995083	34.9090891	-111.4387145	49.45
1535745530.41	63.0	0.0882851481438	-0.00978455320001	1.11205995083	34.9090891	-111.4387141	49.72
1535745530.51	63.0	0.0932578891516	-0.00422854349017	1.11312305927	34.9090891	-111.4387139	49.95
1535745530.61	63.0	0.0948989540339	-0.0153368450701	1.11375129223	34.9090891	-111.4387139	49.95
1535745530.71	63.0	0.0925879925489	-0.0212962813675	1.1145131588	34.9090892	-111.4387135	50.21
1535745530.8	63.0	0.104393482208	-0.0210036095232	1.11561274529	34.9090892	-111.4387133	50.43
1535745530.91	63.0	0.109512113035	-0.0113869328052	1.11473894119	34.9090893	-111.4387129	50.69
1535745531.0	64.0	0.112746752799	-0.0049992823042	1.11680281162	34.9090893	-111.4387126	50.95
1535745531.1	64.0	0.112376354635	-0.00358267547563	1.1179690361	34.9090894	-111.4387124	51.18
1535745531.21	64.0	0.112376354635	-0.00358267547563	1.1179690361	34.9090894	-111.4387121	51.43
1535745531.3	64.0	0.107693053782	-0.00147189246491	1.11790132523	34.9090894	-111.4387119	51.65
1535745531.4	64.0	0.104283504188	-0.00303408806212	1.118242383	34.9090894	-111.4387118	51.86
1535745531.51	64.0	0.101444549859	-0.00644042156637	1.11699616909	34.9090893	-111.4387116	52.13
1535745531.61	63.0	0.0915313661098	-0.0124456137419	1.11711716652	34.9090893	-111.4387116	52.13
1535745531.7	63.0	0.0844167843461	-0.0170493517071	1.11732470989	34.9090893	-111.4387114	52.43
1535745531.81	64.0	0.0737591907382	-0.0163149870932	1.11768531799	34.9090892	-111.4387113	52.65
1535745531.9	64.0	0.0694410353899	-0.0176472682506	1.11744391918	34.9090891	-111.4387112	52.87
1535745532.0	64.0	0.0694410353899	-0.0176472682506	1.11744391918	34.9090891	-111.4387111	53.1
1535745532.11	63.0	0.0659875497222	-0.0576587989926	1.11803340912	34.9090891	-111.4387109	53.33
1535745532.2	63.0	0.0814099609852	-0.0592042431235	1.11452841759	34.9090891	-111.4387107	53.59
1535745532.3	64.0	0.0916440859437	-0.0534566901624	1.11884510517	34.9090891	-111.4387107	53.59
1535745532.4	64.0	0.0956073105335	-0.0447920709848	1.11787819862	34.9090893	-111.4387103	54.09
1535745532.5	64.0	0.101565033197	-0.0314008034766	1.11888337135	34.9090895	-111.4387101	54.31
1535745532.61	63.0	0.106718786061	-0.0179354175925	1.11550498009	34.9090897	-111.4387099	54.51
1535745532.71	63.0	0.106718786061	-0.0179354175925	1.11550498009	34.9090899	-111.4387097	54.73
1535745532.81	63.0	0.11217341572	-0.000629198737442	1.11733138561	34.9090899	-111.4387097	54.73
1535745532.91	63.0	0.130687534809	0.00296283653006	1.1160081625	34.9090905	-111.4387091	55.17
1535745533.0	63.0	0.130687534809	0.00296283653006	1.1160081625	34.9090905	-111.4387091	55.17
1535745533.11	63.0	0.138311877847	0.0129439067096	1.11584472656	34.9090908	-111.4387087	55.43
1535745533.21	64.0	0.160763666034	0.00783506780863	1.11863005161	34.909091	-111.4387083	55.66
1535745533.3	64.0	0.160763666034	0.00783506780863	1.11863005161	34.9090912	-111.4387079	55.89
1535745533.41	64.0	0.159389987588	0.00324730901048	1.11761593819	34.9090914	-111.4387075	56.13
1535745533.51	63.0	0.180544018745	0.00314566073939	1.11604189873	34.9090916	-111.4387071	56.36
1535745533.6	63.0	0.182803094387	-0.017193980515	1.11484503746	34.9090918	-111.4387067	56.61
1535745533.7	63.0	0.182803094387	-0.017193980515	1.11484503746	34.9090919	-111.4387063	56.86
1535745533.81	63.0	0.189055800438	-0.0106029864401	1.11166763306	34.9090921	-111.438706	57.1
1535745533.91	63.0	0.209279835224	0.011564258486	1.10879540443	34.9090922	-111.4387056	57.34
1535745534.01	63.0	0.227883920074	0.0192759726197	1.10917556286	34.9090924	-111.4387052	57.61
1535745534.1	63.0	0.227111756802	0.00571143208072	1.11214220524	34.9090925	-111.4387049	57.81
1535745534.21	63.0	0.220329895616	-0.0045026158914	1.11556065083	34.9090926	-111.4387046	58.04
1535745534.31	63.0	0.219819188118	-0.00539157586172	1.11398184299	34.9090926	-111.4387043	58.25
1535745534.4	63.0	0.219819188118	-0.00539157586172	1.11398184299	34.9090926	-111.4387043	58.25
1535745534.5	64.0	0.250186055899	-0.0106726549566	1.11839997768	34.9090927	-111.4387041	58.41
1535745534.61	64.0	0.278350383043	-0.00185425812379	1.1283686161	34.9090928	-111.4387041	58.69
1535745534.71	65.0	0.283236980438	0.00909345969558	1.13734543324	34.9090928	-111.4387042	58.82
1535745534.8	65.0	0.27065512538	0.010397605598	1.14796507359	34.9090928	-111.4387042	58.82
1535745534.9	66.0	0.254233896732	0.0114936865866	1.16419661045	34.9090927	-111.4387045	58.95
1535745535.01	67.0	0.234348416328	0.0226568449289	1.1802188158	34.9090926	-111.4387049	59.04
1535745535.1	67.0	0.234348416328	0.0226568449289	1.1802188158	34.9090924	-111.4387055	59.17
1535745535.21	69.0	0.177813544869	0.0230369642377	1.23892247677	34.9090922	-111.438706	59.26
1535745535.3	71.0	0.177813544869	0.0230369642377	1.23892247677	34.9090919	-111.4387066	59.37
1535745535.4	73.0	0.16304384172	0.00844274461269	1.27998149395	34.9090915	-111.4387072	59.46
1535745535.51	76.0	0.141840040684	-0.00159935839474	1.32706356049	34.9090915	-111.4387072	59.46
1535745535.61	78.0	0.133026704192	-0.00133341224864	1.36878609657	34.9090913	-111.4387078	59.53
1535745535.7	81.0	0.124368414283	0.00229242676869	1.41373765469	34.9090909	-111.4387088	59.61
1535745535.81	83.0	0.105183281004	0.00842164084315	1.45715034008	34.9090908	-111.4387093	59.64
1535745535.91	86.0	0.0979593843222	0.0270073991269	1.50022816658	34.9090908	-111.4387093	59.64
1535745536.0	89.0	0.085279636085	0.0440169014037	1.54513716698	34.9090907	-111.4387101	59.69
1535745536.11	91.0	0.0886806249619	0.0309174899012	1.59384095669	34.9090907	-111.4387101	59.69
1535745536.21	91.0	0.117125302553	0.0487405657768	1.64547109604	34.9090907	-111.4387104	59.73
1535745536.3	97.0	0.107816174626	0.0731094628572	1.69006991386	34.9090906	-111.4387106	59.73
1535745536.41	99.0	0.0966126993299	0.0648953169584	1.73555970192	34.9090906	-111.4387108	59.71
1535745536.51	99.0	0.0981495454907	0.0692805871367	1.77958500385	34.9090907	-111.4387109	59.71
1535745536.61	102.0	0.0963631123304	0.0942142978311	1.8247654438	34.9090907	-111.4387111	59.7
1535745536.71	105.0	0.0938138887286	0.109616138041	1.87891328335	34.9090908	-111.4387112	59.72
1535745536.8	108.0	0.0938138887286	0.109616138041	1.87891328335	34.9090909	-111.4387112	59.72
1535745536.91	112.0	0.0872098952532	0.114064112306	1.92360901833	34.9090909	-111.4387113	59.74
1535745537.0	115.0	0.0795064419508	0.101475872099	1.9836833477	34.909091	-111.4387114	59.75
1535745537.11	115.0	0.0799681842327	0.106616489589	2.0282394886	34.909091	-111.4387115	59.78
1535745537.21	118.0	0.065712928772	0.127487555146	2.0800280571	34.909091	-111.4387115	59.78
1535745537.3	120.0	0.0581662580371	0.123954385519	2.12410926819	34.9090911	-111.4387116	59.79
1535745537.4	123.0	0.0490428619087	0.119388833642	2.17894816399	34.9090911	-111.4387118	59.8
1535745537.51	126.0	0.0490428619087	0.119388833642	2.17894816399	34.9090911	-111.4387118	59.81
1535745537.6	128.0	0.0387056358159	0.123619869351	2.26842069626	34.909091	-111.4387118	59.81
1535745537.7	131.0	0.0387056358159	0.123619869351	2.26842069626	34.909091	-111.4387118	59.81
1535745537.81	134.0	0.0321501679718	0.114546731114	2.35836672783	34.909091	-111.4387118	59.81
1535745537.91	136.0	0.0317765288055	0.114214017987	2.40362405777	34.909091	-111.4387117	59.82
1535745538.0	140.0	0.0216972790658	0.121967121959	2.45510005951	34.909091	-111.4387116	59.82
1535745538.1	140.0	0.0216972790658	0.121967121959	2.45510005951	34.9090909	-111.4387116	59.82
1535745538.21	142.0	0.0237091798335	0.12219209969	2.5005941391	34.9090909	-111.4387115	59.82
1535745538.31	145.0	0.0242687910795	0.111813731492	2.54605698586	34.9090908	-111.4387114	59.82
1535745538.4	148.0	0.0198250152171	0.119791895151	2.59942126274	34.9090908	-111.4387113	59.81
1535745538.51	152.0	0.0142408218235	0.128886669874	2.65349149704	34.9090908	-111.4387113	59.81
1535745538.61	155.0	0.00796556845307	0.122132509947	2.70762300491	34.9090908	-111.4387112	59.8
1535745538.7	157.0	-0.00248983409256	0.121646285057	2.75147032738	34.9090908	-111.4387112	59.8
