Time_s	Heading_deg	Pitch_rad	Roll_rad	Yaw_rad	Lat	Long	Alt_m_AGL
1560879796.8	94.0	-0.0461284779012	-0.0322515964508	1.64649450779	35.1779581	-111.6569416	1.486
1560879796.91	94.0	-0.0462861210108	-0.0321091264486	1.64647531509	35.1779582	-111.6569414	1.507
1560879797.0	94.0	-0.0462603978813	-0.0321606956422	1.64647161961	35.1779582	-111.6569413	1.511
1560879797.1	94.0	-0.0462937615812	-0.0321781300008	1.64645814896	35.1779582	-111.6569413	1.511
1560879797.21	94.0	-0.0463411509991	-0.032163258642	1.64645910263	35.1779582	-111.6569413	1.519
1560879797.31	94.0	-0.0463740304112	-0.0322889611125	1.64645302296	35.1779583	-111.6569413	1.522
1560879797.4	94.0	-0.0464322343469	-0.0324831791222	1.64642691612	35.1779583	-111.6569413	1.522
1560879797.5	94.0	-0.0466237552464	-0.0322482474148	1.64650475979	35.1779583	-111.6569412	1.528
1560879797.61	94.0	-0.0465878546238	-0.0322135724127	1.6465306282	35.1779583	-111.6569412	1.53
1560879797.7	94.0	-0.0466544739902	-0.0322434194386	1.64654147625	35.1779583	-111.6569412	1.53
1560879797.81	94.0	-0.0465890392661	-0.0322837382555	1.6465061903	35.1779584	-111.6569411	1.532
1560879797.91	94.0	-0.0466724447906	-0.032240755856	1.64652860165	35.1779584	-111.6569411	1.532
1560879798.0	94.0	-0.0467637479305	-0.0321898981929	1.64656531811	35.1779584	-111.6569411	1.532
1560879798.11	94.0	-0.0468527823687	-0.0322020724416	1.64655256271	35.1779584	-111.656941	1.534
1560879798.21	94.0	-0.0467909127474	-0.0322267636657	1.64655661583	35.1779584	-111.6569409	1.535
1560879798.3	94.0	-0.0468030236661	-0.0320046544075	1.64660692215	35.1779584	-111.6569409	1.536
1560879798.41	94.0	-0.0469018444419	-0.0318918116391	1.64662945271	35.1779584	-111.6569409	1.536
1560879798.51	94.0	-0.0467811562121	-0.0319806784391	1.64658975601	35.1779584	-111.6569408	1.542
1560879798.6	94.0	-0.0468306280673	-0.0320539139211	1.64657211304	35.1779585	-111.6569407	1.547
1560879798.7	94.0	-0.0468585863709	-0.0321884714067	1.64656567574	35.1779585	-111.6569406	1.548
1560879798.81	94.0	-0.0469831861556	-0.0321152769029	1.6465729475	35.1779585	-111.6569406	1.548
1560879798.91	94.0	-0.0469860211015	-0.0318691655993	1.64663290977	35.1779585	-111.6569405	1.55
1560879799.0	94.0	-0.0470250323415	-0.0318736098707	1.64664709568	35.1779585	-111.6569405	1.551
1560879799.1	94.0	-0.0470298305154	-0.0318123623729	1.64663743973	35.1779584	-111.6569404	1.551
1560879799.21	94.0	-0.0470470041037	-0.031855456531	1.64662885666	35.1779584	-111.6569404	1.551
1560879799.31	94.0	-0.0471264757216	-0.0315309911966	1.64666926861	35.1779584	-111.6569402	1.557
1560879799.4	94.0	-0.0471955053508	-0.0315968729556	1.64664924145	35.1779583	-111.6569401	1.558
1560879799.5	94.0	-0.047262262553	-0.0315989106894	1.64669036865	35.1779583	-111.65694	1.557
1560879799.61	94.0	-0.047232914716	-0.0317528396845	1.64663863182	35.1779583	-111.6569399	1.559
1560879799.7	94.0	-0.0470942743123	-0.0318527296185	1.64658081532	35.1779583	-111.6569399	1.562
1560879799.8	94.0	-0.0472319796681	-0.0317953303456	1.64662253857	35.1779583	-111.6569398	1.568
1560879799.91	94.0	-0.0470856279135	-0.0319383554161	1.6465818882	35.1779583	-111.6569397	1.571
1560879800.01	94.0	-0.0471832752228	-0.0320073701441	1.64658379555	35.1779583	-111.6569396	1.577
1560879800.1	94.0	-0.0471433028579	-0.0320511497557	1.64658355713	35.1779583	-111.6569396	1.577
1560879800.21	94.0	-0.0472642406821	-0.0320268161595	1.64660108089	35.1779583	-111.6569394	1.583
1560879800.31	94.0	-0.0471032857895	-0.0321129448712	1.64655506611	35.1779583	-111.6569393	1.584
1560879800.4	94.0	-0.0470710359514	-0.0320761427283	1.64658236504	35.1779583	-111.6569393	1.584
1560879800.5	94.0	-0.0471469350159	-0.0314142107964	1.64674198627	35.1779582	-111.6569392	1.592
1560879800.61	94.0	-0.0471309497952	-0.0312501713634	1.64672958851	35.1779582	-111.6569391	1.593
1560879800.71	94.0	-0.0471904315054	-0.0311517417431	1.64672648907	35.1779582	-111.6569391	1.593
1560879800.8	94.0	-0.0471618399024	-0.0312090907246	1.64671432972	35.1779582	-111.656939	1.593
1560879800.91	94.0	-0.0470042228699	-0.0311198886484	1.64673221111	35.1779582	-111.6569389	1.593
1560879801.01	94.0	-0.0470533147454	-0.0309242773801	1.64675748348	35.1779582	-111.6569389	1.593
1560879801.1	94.0	-0.0469833239913	-0.0309336204082	1.64677858353	35.1779581	-111.6569388	1.593
1560879801.21	94.0	-0.046936199069	-0.03105147928	1.64676082134	35.1779581	-111.6569387	1.591
1560879801.3	94.0	-0.0471319817007	-0.0313617885113	1.64675235748	35.1779581	-111.6569387	1.591
1560879801.41	94.0	-0.0471949987113	-0.0312495864928	1.64673686028	35.177958	-111.6569385	1.594
1560879801.51	94.0	-0.0471360497177	-0.0310389846563	1.64677941799	35.177958	-111.6569385	1.597
1560879801.6	94.0	-0.0471488833427	-0.0311760045588	1.64678406715	35.177958	-111.6569385	1.597
1560879801.7	94.0	-0.0472130104899	-0.03119350411	1.64677762985	35.1779579	-111.6569383	1.608
1560879801.81	94.0	-0.0471757091582	-0.0313041172922	1.6467628479	35.1779579	-111.6569382	1.614
1560879801.91	94.0	-0.0472403094172	-0.0312650389969	1.64677584171	35.1779579	-111.6569382	1.614
1560879802.0	94.0	-0.047196123749	-0.0311813224107	1.64678585529	35.1779578	-111.6569381	1.615
1560879802.11	94.0	-0.0471776202321	-0.0311739444733	1.64678800106	35.1779577	-111.656938	1.616
1560879802.2	94.0	-0.0471651814878	-0.03111115098	1.64679121971	35.1779577	-111.656938	1.616
1560879802.3	94.0	-0.0471771657467	-0.0310486685485	1.64680433273	35.1779577	-111.6569378	1.618
1560879802.41	94.0	-0.0472224727273	-0.0309564433992	1.64682555199	35.1779576	-111.6569378	1.62
1560879802.51	94.0	-0.047233145684	-0.0309056639671	1.64686489105	35.1779576	-111.6569378	1.62
1560879802.6	94.0	-0.0471307560802	-0.0310199316591	1.64686942101	35.1779576	-111.6569377	1.622
1560879802.7	94.0	-0.0470180921257	-0.0310515332967	1.6468514204	35.1779576	-111.6569377	1.622
1560879802.81	94.0	-0.0469124242663	-0.0310512594879	1.64689552784	35.1779576	-111.6569377	1.622
1560879802.9	94.0	-0.0470888875425	-0.0309570468962	1.64696109295	35.1779576	-111.6569376	1.63
1560879803.01	94.0	-0.047092128545	-0.0308112408966	1.64699172974	35.1779576	-111.6569376	1.632
1560879803.11	94.0	-0.0471966564655	-0.0310941636562	1.64698648453	35.1779576	-111.6569376	1.632
1560879803.2	94.0	-0.0470976307988	-0.0311666335911	1.64697754383	35.1779576	-111.6569375	1.627
1560879803.31	94.0	-0.0473063439131	-0.0311958156526	1.64700603485	35.1779576	-111.6569375	1.625
1560879803.41	94.0	-0.0471784770489	-0.0311636440456	1.64701342583	35.1779576	-111.6569375	1.626
1560879803.5	94.0	-0.0472145788372	-0.0311956107616	1.6470375061	35.1779575	-111.6569375	1.627
1560879803.61	94.0	-0.0471376292408	-0.0312320869416	1.64703786373	35.1779576	-111.6569374	1.628
1560879803.71	94.0	-0.047172755003	-0.0312862694263	1.64708423615	35.1779576	-111.6569374	1.628
1560879803.8	94.0	-0.0470344126225	-0.0313696190715	1.64706087112	35.1779576	-111.6569374	1.63
1560879803.91	94.0	-0.0469318851829	-0.031438741833	1.64702856541	35.1779576	-111.6569374	1.632
1560879804.01	94.0	-0.0468184053898	-0.0316073298454	1.64702308178	35.1779576	-111.6569374	1.632
1560879804.1	94.0	-0.0468594618142	-0.0316253043711	1.64705216885	35.1779577	-111.6569374	1.632
1560879804.21	94.0	-0.0468027740717	-0.0316747650504	1.64708995819	35.1779577	-111.6569374	1.632
1560879804.31	94.0	-0.0469129532576	-0.0312743857503	1.64720821381	35.1779577	-111.6569374	1.632
1560879804.4	94.0	-0.0468107461929	-0.0313279591501	1.64725327492	35.1779578	-111.6569375	1.634
1560879804.51	94.0	-0.046831689775	-0.0313709788024	1.64729511738	35.1779578	-111.6569376	1.634
1560879804.61	94.0	-0.0466555804014	-0.031406339258	1.64729177952	35.1779578	-111.6569376	1.637
1560879804.7	94.0	-0.0467189028859	-0.0310942362994	1.64736449718	35.1779578	-111.6569376	1.637
1560879804.8	94.0	-0.0467097759247	-0.031160056591	1.64734709263	35.1779579	-111.6569377	1.64
1560879804.91	94.0	-0.0466180741787	-0.0312305502594	1.64735019207	35.1779579	-111.6569378	1.644
1560879805.01	94.0	-0.0466455072165	-0.0311378352344	1.64737021923	35.177958	-111.6569378	1.647
1560879805.1	94.0	-0.0464510433376	-0.0316269770265	1.64728760719	35.177958	-111.6569378	1.647
1560879805.21	94.0	-0.0464634373784	-0.0315470136702	1.64731132984	35.177958	-111.6569379	1.647
1560879805.31	94.0	-0.0463680177927	-0.0316514223814	1.64725625515	35.1779581	-111.656938	1.649
1560879805.4	94.0	-0.0463995337486	-0.0316011533141	1.64726495743	35.1779581	-111.656938	1.649
1560879805.51	94.0	-0.0464299321175	-0.0316297747195	1.64725959301	35.1779581	-111.6569381	1.652
1560879805.61	94.0	-0.0464363433421	-0.0315658263862	1.64727115631	35.1779582	-111.6569382	1.654
1560879805.7	94.0	-0.0464592948556	-0.0316346995533	1.64728569984	35.1779582	-111.6569382	1.654
1560879805.8	94.0	-0.0463926047087	-0.0316545851529	1.64726853371	35.1779583	-111.6569383	1.654
1560879805.91	94.0	-0.0464134514332	-0.0315969251096	1.64725637436	35.1779583	-111.6569383	1.654
1560879806.0	94.0	-0.0463216304779	-0.0317233242095	1.64722955227	35.1779584	-111.6569384	1.653
1560879806.1	94.0	-0.0464382618666	-0.031868968159	1.64727544785	35.1779584	-111.6569385	1.652
1560879806.21	94.0	-0.0464605689049	-0.0317964814603	1.64730739594	35.1779585	-111.6569385	1.65
1560879806.31	94.0	-0.0466871485114	-0.0317695513368	1.64732372761	35.1779585	-111.6569386	1.65
1560879806.4	94.0	-0.0467567779124	-0.0318009629846	1.64738881588	35.1779586	-111.6569386	1.65
1560879806.5	94.0	-0.0467562191188	-0.0317707620561	1.64740049839	35.1779586	-111.6569386	1.65
1560879806.61	94.0	-0.0467282384634	-0.0316948443651	1.64745461941	35.1779587	-111.6569388	1.647
1560879806.7	94.0	-0.0468417555094	-0.0315060839057	1.64750540257	35.1779587	-111.6569388	1.645
1560879808.11	94.0	-0.0470734871924	-0.0317514427006	1.64753556252	35.177959	-111.6569392	1.617
1560879808.2	94.0	-0.047144446522	-0.031693957746	1.64753758907	35.177959	-111.6569392	1.617
1560879808.3	94.0	-0.0472154468298	-0.0318786650896	1.64755582809	35.177959	-111.6569392	1.617
1560879808.41	94.0	-0.0471163019538	-0.0323188006878	1.6474596262	35.177959	-111.6569393	1.624
1560879808.51	94.0	-0.0471289008856	-0.0324632041156	1.64743816853	35.1779591	-111.6569393	1.625
1560879808.61	94.0	-0.0471553429961	-0.0323832221329	1.64747726917	35.1779591	-111.6569394	1.626
1560879808.7	94.0	-0.0471517257392	-0.0324338003993	1.64744710922	35.1779591	-111.6569394	1.626
1560879808.8	94.0	-0.0472114756703	-0.0324614830315	1.64745736122	35.1779592	-111.6569394	1.627
1560879808.91	94.0	-0.0472339168191	-0.0326096005738	1.64741659164	35.1779593	-111.6569394	1.627
1560879809.0	94.0	-0.0472539514303	-0.0326043851674	1.64740526676	35.1779593	-111.6569395	1.627
1560879809.1	94.0	-0.0473357327282	-0.0326476059854	1.6473993063	35.1779593	-111.6569395	1.627
1560879809.2	94.0	-0.0473078601062	-0.0326663516462	1.64740264416	35.1779594	-111.6569396	1.63
1560879809.31	94.0	-0.0474023260176	-0.032619278878	1.64743971825	35.1779595	-111.6569397	1.632
1560879809.41	94.0	-0.0474818758667	-0.0325154848397	1.64748597145	35.1779595	-111.6569398	1.635
1560879809.5	94.0	-0.0475603416562	-0.0321688950062	1.64755988121	35.1779596	-111.6569398	1.635
1560879809.6	94.0	-0.0475365556777	-0.0321383327246	1.64757764339	35.1779596	-111.6569398	1.635
1560879809.71	94.0	-0.0475526563823	-0.0320672132075	1.6475995779	35.1779597	-111.6569399	1.635
1560879809.81	94.0	-0.0475563853979	-0.0320613831282	1.6476136446	35.1779597	-111.65694	1.636
1560879809.9	94.0	-0.0474653206766	-0.0320272669196	1.64760696888	35.1779598	-111.6569401	1.64
1560879810.0	94.0	-0.047482881695	-0.0319664925337	1.64763498306	35.1779598	-111.6569401	1.64
1560879810.11	94.0	-0.0475995056331	-0.032107360661	1.64764034748	35.1779599	-111.6569401	1.64
1560879810.21	94.0	-0.0476483516395	-0.0322850570083	1.64758980274	35.1779599	-111.6569402	0.006
1560879810.3	94.0	-0.0476498603821	-0.0322932824492	1.64757561684	35.17796	-111.6569403	0.006
1560879810.41	94.0	-0.0481461323798	-0.0323880538344	1.64763462543	35.1779601	-111.6569404	0.007
1560879810.5	94.0	-0.0480643175542	-0.0324090830982	1.64762020111	35.1779601	-111.6569404	0.007
1560879810.6	94.0	-0.0482203513384	-0.0318925231695	1.64776873589	35.1779602	-111.6569404	0.011
1560879810.71	94.0	-0.0482203513384	-0.0318925231695	1.64776873589	35.1779603	-111.6569405	0.015
1560879810.81	94.0	-0.04795659706	-0.0321464985609	1.64773952961	35.1779603	-111.6569406	0.022
1560879810.9	94.0	-0.0477488487959	-0.0321600995958	1.64773774147	35.1779604	-111.6569407	0.025
1560879811.0	94.0	-0.0476169139147	-0.0321242809296	1.64773452282	35.1779604	-111.6569407	0.025
1560879811.11	94.0	-0.0474119186401	-0.0324123501778	1.64770340919	35.1779605	-111.6569409	0.026
1560879811.21	94.0	-0.0474119186401	-0.0324123501778	1.64770340919	35.1779605	-111.656941	0.028
1560879811.3	94.0	-0.0475816838443	-0.0324959382415	1.64776349068	35.1779606	-111.6569411	0.03
1560879811.41	94.0	-0.0475600734353	-0.0326951555908	1.64773023129	35.1779607	-111.6569413	0.03
1560879811.51	94.0	-0.0476349592209	-0.0326929464936	1.64774179459	35.1779608	-111.6569414	0.028
1560879811.6	94.0	-0.0477176941931	-0.0325373746455	1.64779758453	35.1779609	-111.6569415	0.024
1560879811.7	94.0	-0.0479416847229	-0.032283950597	1.64786052704	35.177961	-111.6569416	0.022
1560879813.01	94.0	-0.0476073659956	-0.0327231623232	1.64775335789	35.1779616	-111.6569423	-0.006
1560879813.11	94.0	-0.0476051606238	-0.0329851172864	1.64778518677	35.1779617	-111.6569424	-0.012
1560879813.2	94.0	-0.0474122986197	-0.0331263877451	1.64773035049	35.1779618	-111.6569424	-0.016
1560879813.3	94.0	-0.0474122986197	-0.0331263877451	1.64773035049	35.1779619	-111.6569425	-0.018
1560879813.41	94.0	-0.0472948923707	-0.0335018336773	1.64750862122	35.177962	-111.6569425	-0.019
1560879813.51	94.0	-0.0473051220179	-0.0336858853698	1.64735233784	35.1779621	-111.6569425	-0.016
1560879813.6	94.0	-0.0472209192812	-0.0337278731167	1.64733350277	35.1779621	-111.6569425	-0.016
1560879813.7	94.0	-0.0473012626171	-0.0336965769529	1.64736044407	35.1779622	-111.6569425	-0.016
1560879813.8	94.0	-0.0469277650118	-0.0338771790266	1.64727127552	35.1779623	-111.6569425	-0.018
1560879813.91	94.0	-0.0469695441425	-0.0339367426932	1.64735996723	35.1779624	-111.6569425	-0.02
1560879814.01	94.0	-0.0467996932566	-0.0338877588511	1.64730155468	35.1779625	-111.6569425	-0.021
1560879814.1	94.0	-0.0467996932566	-0.0338877588511	1.64730155468	35.1779625	-111.6569425	-0.018
1560879814.2	94.0	-0.046938393265	-0.0341250598431	1.64722049236	35.1779625	-111.6569425	-0.018
1560879814.31	94.0	-0.0467600263655	-0.0339989028871	1.64715838432	35.1779626	-111.6569424	-0.015
1560879814.41	94.0	-0.0465635284781	-0.0339708030224	1.64710056782	35.1779627	-111.6569424	-0.011
1560879814.5	94.0	-0.0467747412622	-0.033761844039	1.64714670181	35.1779628	-111.6569424	-0.007
1560879814.6	94.0	-0.047701317817	-0.0337714627385	1.64730024338	35.1779628	-111.6569423	-0.001
1560879814.7	94.0	-0.047701317817	-0.0337714627385	1.64730024338	35.1779629	-111.6569423	0.003
1560879814.81	94.0	-0.0477669835091	-0.0337754972279	1.64726889133	35.177963	-111.6569422	0.01
1560879814.91	94.0	-0.0484459213912	-0.0336700417101	1.64687943459	35.1779631	-111.6569421	0.017
1560879815.0	94.0	-0.0485507920384	-0.0335654094815	1.64646792412	35.1779632	-111.6569421	0.023
1560879815.1	94.0	-0.0490231178701	-0.0324917621911	1.64648139477	35.1779632	-111.656942	0.026
1560879815.21	94.0	-0.0497152619064	-0.0316794253886	1.6455258131	35.1779633	-111.6569419	0.027
1560879815.31	94.0	-0.0540261492133	-0.0227446798235	1.643663764	35.1779633	-111.6569418	0.026
1560879815.4	94.0	-0.0571311712265	0.00158682477195	1.64373934269	35.1779633	-111.6569417	0.025
1560879815.5	93.0	-0.0424070805311	0.0094015756622	1.63672924042	35.1779633	-111.6569415	0.039
1560879815.61	93.0	-0.0339200608432	0.00068487029057	1.62833929062	35.1779633	-111.6569415	0.039
1560879815.7	93.0	-0.0238794609904	-0.00745869521052	1.62766993046	35.1779632	-111.6569413	0.065
1560879815.81	93.0	-0.0211281962693	0.000428755418397	1.62869083881	35.1779632	-111.6569411	0.103
1560879815.91	93.0	-0.0157273653895	-0.000162970856763	1.626942873	35.1779631	-111.6569406	0.247
1560879816.0	93.0	-0.0157273653895	-0.000162970856763	1.626942873	35.1779631	-111.6569406	0.247
1560879816.1	93.0	-0.0146987196058	-0.0057074460201	1.62545681	35.177963	-111.6569403	0.374
1560879816.21	93.0	-0.0116404723376	-0.0155656840652	1.62680840492	35.1779629	-111.6569401	0.554
1560879816.31	93.0	-0.0129929054528	-0.0194369424134	1.62745082378	35.1779628	-111.6569401	0.718
1560879816.4	93.0	-0.0173205174506	-0.0197709091008	1.62618935108	35.1779627	-111.65694	0.931
1560879816.5	93.0	-0.0173205174506	-0.0197709091008	1.62618935108	35.1779627	-111.65694	0.931
1560879816.61	93.0	-0.0195075944066	-0.0195784717798	1.6255518198	35.1779626	-111.6569399	1.186
1560879816.7	93.0	-0.0176014881581	-0.0224968530238	1.62611567974	35.1779625	-111.6569397	1.573
1560879818.1	94.0	-0.0101942718029	-0.0238017272204	1.6481192112	35.1779614	-111.6569388	4.005
1560879818.21	94.0	-0.0252859778702	-0.0109969964251	1.6485555172	35.1779614	-111.656939	4.114
1560879818.3	94.0	-0.0437154471874	-0.000785821001045	1.64906275272	35.1779614	-111.6569393	4.207
1560879818.41	94.0	-0.0579446740448	0.00916238408536	1.64804816246	35.1779614	-111.6569395	4.289
1560879818.51	94.0	-0.067177914083	0.0167245157063	1.6474519968	35.1779614	-111.6569396	4.36
1560879818.6	94.0	-0.0726452022791	0.0209373366088	1.64751684666	35.1779613	-111.6569398	4.422
1560879818.71	94.0	-0.0766316205263	0.0224708598107	1.64702045918	35.1779613	-111.6569398	4.422
1560879818.81	94.0	-0.0816700533032	0.0262434631586	1.64631342888	35.1779608	-111.6569398	4.544
1560879818.9	94.0	-0.0816700533032	0.0262434631586	1.64631342888	35.1779608	-111.6569398	4.544
1560879819.01	94.0	-0.0875406712294	0.0287883151323	1.64622497559	35.1779606	-111.6569398	4.587
1560879819.11	94.0	-0.0929429680109	0.0343268066645	1.6461250782	35.17796	-111.6569395	4.659
1560879819.2	94.0	-0.0974067747593	0.037280280143	1.64676129818	35.17796	-111.6569395	4.659
1560879819.3	94.0	-0.0974067747593	0.037280280143	1.64676129818	35.1779596	-111.6569391	4.689
1560879819.41	94.0	-0.0974649712443	0.0394946075976	1.64747750759	35.1779592	-111.6569387	4.716
1560879819.51	94.0	-0.0976046696305	0.042881578207	1.64752459526	35.1779588	-111.6569382	4.737
1560879819.6	94.0	-0.0956048816442	0.0469083786011	1.64855420589	35.1779577	-111.6569368	4.785
1560879819.7	94.0	-0.0883966684341	0.046022079885	1.64922213554	35.1779577	-111.6569368	4.785
1560879819.81	94.0	-0.0883966684341	0.046022079885	1.64922213554	35.177957	-111.6569358	4.811
1560879819.9	94.0	-0.0642415210605	0.0318869873881	1.64998650551	35.1779564	-111.6569349	4.832
1560879820.01	94.0	-0.0642415210605	0.0318869873881	1.64998650551	35.1779557	-111.656934	4.85
1560879820.11	94.0	-0.0529553480446	0.0240477919579	1.64973199368	35.177955	-111.656933	4.864
1560879820.2	94.0	-0.0410388335586	0.0168192517012	1.64953756332	35.1779541	-111.6569317	4.882
1560879820.31	94.0	-0.0291937887669	0.00915092695504	1.65001964569	35.1779534	-111.6569307	4.899
1560879820.41	94.0	-0.00826726108789	-0.00593539467081	1.64951217175	35.1779525	-111.6569294	4.924
1560879820.5	94.0	0.00547593273222	-0.0175810474902	1.65012049675	35.1779518	-111.6569284	4.942
1560879820.6	94.0	0.0133785959333	-0.0221690665931	1.65039026737	35.1779511	-111.6569274	4.959
1560879820.7	94.0	0.0133785959333	-0.0221690665931	1.65039026737	35.1779511	-111.6569274	4.959
1560879820.81	94.0	0.0253798216581	-0.0338151864707	1.65047967434	35.1779495	-111.6569253	4.974
1560879820.91	94.0	0.0264719985425	-0.0373064465821	1.64984703064	35.1779489	-111.6569246	4.977
1560879821.0	94.0	0.0264719985425	-0.0373064465821	1.64984703064	35.1779489	-111.6569246	4.977
1560879821.11	94.0	0.0267804637551	-0.0397706218064	1.64954686165	35.1779482	-111.6569237	4.981
1560879821.21	94.0	0.0301149189472	-0.0421159937978	1.64955711365	35.1779476	-111.6569231	4.983
1560879821.3	94.0	0.0292302444577	-0.0423628538847	1.6497117281	35.1779472	-111.6569225	4.986
1560879821.41	94.0	0.0300768129528	-0.044268772006	1.64966475964	35.1779467	-111.656922	4.987
1560879821.51	94.0	0.0289483815432	-0.0450948439538	1.64946675301	35.1779463	-111.6569216	4.989
1560879821.6	94.0	0.0280085727572	-0.045440018177	1.64938271046	35.1779458	-111.6569212	4.99
1560879821.71	94.0	0.0280085727572	-0.045440018177	1.64938271046	35.1779454	-111.6569208	4.99
1560879823.11	94.0	-0.0100917294621	-0.0287149846554	1.65448641777	35.1779441	-111.6569217	4.981
1560879823.21	94.0	-0.0134725254029	-0.0256689414382	1.65398108959	35.1779442	-111.656922	4.981
1560879823.3	94.0	-0.0137436361983	-0.0204395465553	1.65420341492	35.1779443	-111.6569222	4.983
1560879823.41	94.0	-0.0137436361983	-0.0204395465553	1.65420341492	35.1779443	-111.6569222	4.983
1560879823.5	94.0	-0.0168583393097	-0.0201254338026	1.65469157696	35.1779444	-111.6569225	4.98
1560879823.61	94.0	-0.0252084117383	-0.0169450305402	1.65534293652	35.1779446	-111.6569229	4.974
1560879823.71	94.0	-0.0252084117383	-0.0169450305402	1.65534293652	35.1779446	-111.6569229	4.974
1560879823.8	94.0	-0.03032104671	-0.0171301867813	1.65636312962	35.1779447	-111.6569231	4.972
1560879823.9	94.0	-0.0302013866603	-0.0195420179516	1.6560587883	35.1779449	-111.6569234	4.968
1560879824.01	94.0	-0.0302013866603	-0.0195420179516	1.6560587883	35.1779449	-111.6569234	4.968
1560879824.1	94.0	-0.0285114236176	-0.0158670712262	1.65560722351	35.177945	-111.6569235	4.964
1560879824.2	94.0	-0.0285896994174	-0.013043471612	1.6547306776	35.1779451	-111.6569237	4.961
1560879824.31	94.0	-0.0285896994174	-0.013043471612	1.6547306776	35.1779452	-111.6569238	4.962
1560879824.41	94.0	-0.0288445483893	-0.013479440473	1.65448558331	35.1779453	-111.6569239	4.967
1560879824.5	94.0	-0.0295003671199	-0.0124147925526	1.65418481827	35.1779453	-111.656924	4.971
1560879824.61	94.0	-0.0294574014843	-0.0117501774803	1.65372574329	35.1779454	-111.656924	4.971
1560879824.71	94.0	-0.0294574014843	-0.0117501774803	1.65372574329	35.1779454	-111.6569241	4.97
1560879824.8	94.0	-0.029217608273	-0.0154932299629	1.65290164948	35.1779455	-111.6569241	4.97
1560879824.91	94.0	-0.0280340947211	-0.0163322538137	1.65252637863	35.1779455	-111.6569241	4.97
1560879825.01	94.0	-0.0295053198934	-0.0172796137631	1.65296852589	35.1779456	-111.6569241	4.974
1560879825.1	94.0	-0.0280385017395	-0.0164013449103	1.65294158459	35.1779456	-111.6569241	4.977
1560879825.2	94.0	-0.0253310091794	-0.0168117061257	1.65280747414	35.1779456	-111.656924	4.98
1560879825.31	94.0	-0.0234233103693	-0.0123366946355	1.65192759037	35.1779457	-111.6569239	4.984
1560879825.41	94.0	-0.0195566769689	-0.00954356510192	1.65088880062	35.1779457	-111.6569237	4.984
1560879825.5	94.0	-0.0197382047772	-0.00940276961774	1.64999234676	35.1779458	-111.6569236	4.982
1560879825.6	94.0	-0.0197382047772	-0.00940276961774	1.64999234676	35.1779458	-111.6569236	4.982
1560879825.71	94.0	-0.0188111811876	-0.011932246387	1.65226876736	35.1779458	-111.6569234	4.978
1560879825.81	94.0	-0.0182842351496	-0.0146531313658	1.6527119875	35.1779458	-111.6569233	4.977
1560879825.9	94.0	-0.0182842351496	-0.0146531313658	1.6527119875	35.1779458	-111.6569233	4.977
1560879826.01	94.0	-0.0154764959589	-0.0154936350882	1.65266954899	35.1779458	-111.6569231	4.977
1560879826.11	94.0	-0.0134942615405	-0.0162391476333	1.65293717384	35.1779458	-111.656923	4.974
1560879826.2	94.0	-0.0141923762858	-0.0123014794663	1.65258872509	35.1779458	-111.6569229	4.971
1560879826.3	94.0	-0.0144885834306	-0.0116484947503	1.65301346779	35.1779458	-111.6569228	4.965
1560879826.41	94.0	-0.014523781836	-0.0124325137585	1.65311515331	35.1779458	-111.6569227	4.961
1560879826.51	94.0	-0.0132394051179	-0.0133806951344	1.65369057655	35.1779458	-111.6569226	4.958
1560879826.6	94.0	-0.0129919778556	-0.0155965341255	1.65417468548	35.1779458	-111.6569224	4.957
1560879826.71	94.0	-0.0129919778556	-0.0155965341255	1.65417468548	35.1779458	-111.6569223	4.954
1560879828.1	94.0	-0.0171710085124	-0.0127490432933	1.64852750301	35.1779458	-111.6569219	4.94
1560879828.2	94.0	-0.0186529103667	-0.0160100087523	1.64840364456	35.1779458	-111.6569219	4.94
1560879828.31	94.0	-0.0186529103667	-0.0160100087523	1.64840364456	35.1779458	-111.6569219	4.94
1560879828.4	94.0	-0.019497955218	-0.0134931113571	1.64856243134	35.1779458	-111.656922	4.944
1560879828.5	94.0	-0.0191691927612	-0.010922039859	1.64877259731	35.1779458	-111.6569221	4.949
1560879828.61	94.0	-0.0204651281238	-0.0112202307209	1.64880025387	35.1779458	-111.6569221	4.949
1560879828.71	94.0	-0.0230109412223	-0.0131539795548	1.64890480042	35.1779458	-111.6569221	4.95
1560879828.8	94.0	-0.025507401675	-0.0143221095204	1.6484951973	35.1779457	-111.6569222	4.95
1560879828.91	94.0	-0.025507401675	-0.0143221095204	1.6484951973	35.1779457	-111.6569223	4.951
1560879829.01	94.0	-0.0251733139157	-0.0182578843087	1.64896380901	35.1779457	-111.6569224	4.952
1560879829.1	94.0	-0.0275808013976	-0.0181269384921	1.6492664814	35.1779457	-111.6569225	4.953
1560879829.2	94.0	-0.0298645086586	-0.0205684900284	1.65018558502	35.1779456	-111.6569226	4.958
1560879829.31	94.0	-0.0298645086586	-0.0205684900284	1.65018558502	35.1779456	-111.6569227	4.963
1560879829.41	94.0	-0.029757514596	-0.0217216685414	1.65139842033	35.1779456	-111.6569228	4.97
1560879829.5	94.0	-0.0304297246039	-0.0202008020133	1.65210139751	35.1779455	-111.6569228	4.976
1560879829.6	94.0	-0.0304297246039	-0.0202008020133	1.65210139751	35.1779455	-111.6569229	4.981
1560879829.71	94.0	-0.0321188271046	-0.0185852441937	1.65373814106	35.1779455	-111.656923	4.986
1560879829.81	94.0	-0.0349604301155	-0.0183137543499	1.65472006798	35.1779455	-111.6569231	4.99
1560879829.9	94.0	-0.0349604301155	-0.0183137543499	1.65472006798	35.1779455	-111.6569231	4.993
1560879830.0	94.0	-0.034084007144	-0.0160085596144	1.65429353714	35.1779455	-111.6569231	4.993
1560879830.11	94.0	-0.0311383791268	-0.016489867121	1.65302598476	35.1779454	-111.6569231	4.993
1560879830.2	94.0	-0.0281583555043	-0.0177207160741	1.65272378922	35.1779454	-111.6569231	4.995
1560879830.31	94.0	-0.0273313932121	-0.0177373923361	1.65182650089	35.1779454	-111.6569231	4.995
1560879830.41	94.0	-0.0289075728506	-0.0195661578327	1.65136253834	35.1779454	-111.6569232	5.007
1560879830.5	94.0	-0.0303398780525	-0.0209379438311	1.65136432648	35.1779454	-111.6569232	5.014
1560879830.6	94.0	-0.0309027768672	-0.0238591060042	1.65121936798	35.1779454	-111.6569232	5.014
1560879830.71	94.0	-0.0309579521418	-0.0216519720852	1.65148246288	35.1779454	-111.6569233	5.034
1560879830.81	94.0	-0.0322003513575	-0.0202515926212	1.65116322041	35.1779454	-111.6569234	5.04
1560879830.9	94.0	-0.0337938070297	-0.0176110453904	1.65163683891	35.1779454	-111.6569234	5.04
1560879831.0	94.0	-0.0367380715907	-0.0180212706327	1.65164458752	35.1779455	-111.6569236	5.05
1560879831.11	94.0	-0.0370282977819	-0.0185264814645	1.65209627151	35.1779456	-111.6569237	5.051
1560879831.2	94.0	-0.0370282977819	-0.0185264814645	1.65209627151	35.1779456	-111.6569237	5.051
1560879831.3	94.0	-0.0378128439188	-0.0172915365547	1.65202391148	35.1779456	-111.6569238	5.049
1560879831.41	94.0	-0.0367829911411	-0.0178967937827	1.65237498283	35.1779457	-111.6569238	5.046
1560879831.5	94.0	-0.0373355150223	-0.0172158107162	1.65341413021	35.1779458	-111.6569239	5.044
1560879831.61	94.0	-0.0377028286457	-0.0171899590641	1.65373980999	35.1779458	-111.6569239	5.04
1560879831.71	94.0	-0.0403041914105	-0.013906664215	1.65491509438	35.1779459	-111.656924	5.038
1560879831.8	94.0	-0.0403041914105	-0.013906664215	1.65491509438	35.177946	-111.6569241	5.032
1560879831.9	94.0	-0.0427875928581	-0.0113149434328	1.65567827225	35.177946	-111.6569241	5.027
1560879832.01	94.0	-0.0422258749604	-0.00927756074816	1.65601050854	35.1779461	-111.6569242	5.018
1560879832.11	94.0	-0.0418838560581	-0.00643934682012	1.65559494495	35.1779462	-111.6569242	5.009
1560879832.2	94.0	-0.0420895889401	-0.00514313252643	1.65585482121	35.1779462	-111.6569243	5.003
1560879832.3	94.0	-0.0409537702799	-0.00714927818626	1.6567902565	35.1779462	-111.6569242	4.998
1560879832.41	94.0	-0.0410892739892	-0.0087147783488	1.65649056435	35.1779462	-111.6569242	4.991
1560879832.51	94.0	-0.0403618775308	-0.0109550626948	1.65616393089	35.1779462	-111.6569242	4.986
1560879832.6	94.0	-0.0373802483082	-0.0119931036606	1.6565592289	35.1779462	-111.6569241	4.982
1560879832.7	94.0	-0.033263862133	-0.0162131544203	1.65692698956	35.1779461	-111.656924	4.98
1560879832.81	94.0	-0.0304451379925	-0.0175209473819	1.65716969967	35.1779461	-111.6569239	4.978
1560879832.9	94.0	-0.0298300907016	-0.017565689981	1.65738034248	35.1779461	-111.6569239	4.978
1560879833.0	94.0	-0.0272735357285	-0.0180564671755	1.65792119503	35.177946	-111.6569236	4.976
1560879833.11	94.0	-0.024314366281	-0.0169453956187	1.6583840847	35.1779459	-111.6569234	4.974
1560879833.21	94.0	-0.024314366281	-0.0169453956187	1.6583840847	35.1779459	-111.6569233	4.971
1560879833.3	95.0	-0.0243196338415	-0.0173083674163	1.65875065327	35.1779458	-111.6569232	4.967
1560879833.4	95.0	-0.0252391342074	-0.0154174566269	1.65878641605	35.1779458	-111.656923	4.965
1560879833.5	95.0	-0.0248352177441	-0.0165814459324	1.65883088112	35.1779457	-111.6569229	4.965
1560879833.61	95.0	-0.0248352177441	-0.0165814459324	1.65883088112	35.1779457	-111.6569229	4.965
1560879833.71	95.0	-0.0236968602985	-0.0156513359398	1.65857839584	35.1779457	-111.6569228	4.957
1560879833.8	95.0	-0.0204475037754	-0.0165977124125	1.65915644169	35.1779457	-111.6569226	4.954
1560879833.91	95.0	-0.0183339361101	-0.0188257079571	1.65948569775	35.1779456	-111.6569225	4.949
1560879834.01	95.0	-0.0175407379866	-0.0194145180285	1.6583366394	35.1779456	-111.6569224	4.948
1560879834.11	94.0	-0.0165053773671	-0.020529082045	1.65788090229	35.1779455	-111.6569223	4.948
1560879834.2	94.0	-0.0165053773671	-0.020529082045	1.65788090229	35.1779455	-111.6569222	4.947
1560879834.3	94.0	-0.0154161425307	-0.0200039111078	1.65697848797	35.1779454	-111.6569221	4.95
1560879834.41	94.0	-0.013844656758	-0.0208252631128	1.65563488007	35.1779454	-111.656922	4.951
1560879834.51	94.0	-0.0131838452071	-0.0202770587057	1.65431845188	35.1779454	-111.656922	4.95
1560879834.6	94.0	-0.0131838452071	-0.0202770587057	1.65431845188	35.1779454	-111.6569219	4.951
1560879834.7	94.0	-0.0145696718246	-0.0193587746471	1.65558576584	35.1779454	-111.6569219	4.951
1560879834.81	94.0	-0.0164693128318	-0.0206730309874	1.65536522865	35.1779453	-111.6569219	4.951
1560879834.91	94.0	-0.0169419534504	-0.0228362120688	1.65530991554	35.1779453	-111.6569219	4.95
1560879835.0	94.0	-0.0166188944131	-0.021851208061	1.65528929234	35.1779453	-111.6569219	4.95
1560879835.1	94.0	-0.018137363717	-0.0212508756667	1.65513086319	35.1779453	-111.6569218	4.952
1560879835.21	94.0	-0.016601588577	-0.0238977055997	1.65525400639	35.1779452	-111.6569218	4.961
1560879835.31	94.0	-0.0158706847578	-0.021968215704	1.65505135059	35.1779452	-111.6569218	4.961
1560879835.41	94.0	-0.0130827007815	-0.0215503573418	1.65560412407	35.1779452	-111.6569217	4.965
1560879835.5	94.0	-0.0140136182308	-0.0214931946248	1.65626966953	35.1779452	-111.6569217	4.97
1560879835.6	94.0	-0.0140561396256	-0.0231887213886	1.65621769428	35.1779452	-111.6569217	4.972
1560879835.71	94.0	-0.0155644873157	-0.024249015376	1.65513908863	35.1779451	-111.6569217	4.978
1560879835.81	94.0	-0.0155644873157	-0.024249015376	1.65513908863	35.1779451	-111.6569216	4.981
1560879835.9	94.0	-0.015515614301	-0.0217005442828	1.65427291393	35.1779451	-111.6569217	4.981
1560879836.0	94.0	-0.015344616957	-0.023319799453	1.65384399891	35.1779451	-111.6569217	4.98
1560879836.11	94.0	-0.0181745141745	-0.024484327063	1.65308451653	35.1779451	-111.6569218	4.979
1560879836.21	94.0	-0.0203106962144	-0.0218070764095	1.65255475044	35.1779451	-111.6569218	4.976
1560879836.3	94.0	-0.0203106962144	-0.0218070764095	1.65255475044	35.1779452	-111.6569219	4.975
1560879836.4	94.0	-0.0197680108249	-0.0218732785434	1.65362882614	35.1779452	-111.656922	4.976
1560879836.51	94.0	-0.019797720015	-0.017651675269	1.65440523624	35.1779453	-111.6569221	4.98
1560879836.61	94.0	-0.0235811583698	-0.0165140405297	1.654738307	35.1779453	-111.6569221	4.984
1560879836.7	94.0	-0.0258882679045	-0.0151229929179	1.65579342842	35.1779453	-111.6569222	4.985
1560879838.11	95.0	-0.0330611094832	-0.0135138966143	1.65911877155	35.1779457	-111.6569227	4.982
1560879838.21	95.0	-0.0318812802434	-0.0116690853611	1.65908491611	35.1779457	-111.6569227	4.984
1560879838.3	95.0	-0.0317235067487	-0.012563646771	1.65897345543	35.1779458	-111.6569227	4.986
1560879838.4	95.0	-0.0317235067487	-0.012563646771	1.65897345543	35.1779458	-111.6569227	4.984
1560879838.51	95.0	-0.0309989899397	-0.0129398051649	1.65868377686	35.1779458	-111.6569227	4.984
1560879838.61	95.0	-0.0301690027118	-0.0146507453173	1.6596326828	35.1779458	-111.6569227	4.981
1560879838.7	95.0	-0.0301690027118	-0.0146507453173	1.6596326828	35.1779458	-111.6569228	4.978
1560879838.8	95.0	-0.0312394239008	-0.0137990005314	1.65991151333	35.1779458	-111.6569228	4.978
1560879838.91	95.0	-0.0370060093701	-0.0121043743566	1.6625957489	35.1779457	-111.6569229	4.98
1560879839.0	95.0	-0.0402872338891	-0.0134832076728	1.66363930702	35.1779457	-111.6569229	4.981
1560879839.1	95.0	-0.0402872338891	-0.0134832076728	1.66363930702	35.1779457	-111.6569229	4.981
1560879839.21	95.0	-0.0384468361735	-0.0155365597457	1.6640535593	35.1779457	-111.6569229	4.978
1560879839.3	95.0	-0.0353827960789	-0.0148568302393	1.66406440735	35.1779457	-111.656923	4.976
1560879839.4	95.0	-0.0353827960789	-0.0148568302393	1.66406440735	35.1779456	-111.656923	4.976
1560879839.51	95.0	-0.0324503295124	-0.0136101590469	1.66319739819	35.1779456	-111.656923	4.976
1560879839.6	95.0	-0.0320649892092	-0.0142718767747	1.66185843945	35.1779456	-111.6569229	4.981
1560879839.7	95.0	-0.0292103886604	-0.0168672725558	1.66193926334	35.1779456	-111.6569229	4.985
1560879839.81	95.0	-0.0264601204544	-0.0224400535226	1.66114079952	35.1779455	-111.6569228	4.993
1560879839.91	95.0	-0.0233779326081	-0.0199057422578	1.6593183279	35.1779454	-111.6569227	4.996
1560879840.0	95.0	-0.0216052494943	-0.0191905945539	1.65872979164	35.1779454	-111.6569227	5.001
1560879840.11	95.0	-0.0216052494943	-0.0191905945539	1.65872979164	35.1779454	-111.6569227	5.001
1560879840.2	95.0	-0.0226074624807	-0.0211175363511	1.65967059135	35.1779454	-111.6569226	5.003
1560879840.3	95.0	-0.0241544041783	-0.0205861348659	1.65996563435	35.1779453	-111.6569226	5.001
1560879840.41	95.0	-0.0210744179785	-0.0215183477849	1.6578540802	35.1779453	-111.6569225	4.999
1560879840.51	94.0	-0.0210744179785	-0.0215183477849	1.6578540802	35.1779453	-111.6569225	4.999
1560879840.6	94.0	-0.0199706815183	-0.0241767372936	1.65655338764	35.1779453	-111.6569224	4.998
1560879840.7	94.0	-0.018072122708	-0.0223368573934	1.65585231781	35.1779453	-111.6569223	5.0
1560879840.81	94.0	-0.0198023878038	-0.0215309225023	1.65490424633	35.1779453	-111.6569223	5.002
1560879840.91	94.0	-0.0211708061397	-0.0210211873055	1.65520370007	35.1779453	-111.6569222	5.009
1560879841.0	94.0	-0.0233110338449	-0.0237698331475	1.65502178669	35.1779453	-111.6569222	5.017
1560879841.1	94.0	-0.0233110338449	-0.0237698331475	1.65502178669	35.1779453	-111.6569222	5.017
1560879841.21	94.0	-0.0243849810213	-0.0231945496053	1.65474176407	35.1779454	-111.6569222	5.021
1560879841.3	94.0	-0.0240177512169	-0.0184683948755	1.65420687199	35.1779454	-111.6569221	5.027
1560879841.41	94.0	-0.0240177512169	-0.0184683948755	1.65420687199	35.1779455	-111.6569222	5.033
1560879841.51	94.0	-0.024354070425	-0.0163165349513	1.65408408642	35.1779455	-111.6569222	5.033
1560879841.61	94.0	-0.0271495617926	-0.0150473667309	1.65419840813	35.1779455	-111.6569222	5.036
1560879841.7	94.0	-0.0300749093294	-0.0134969661012	1.65491104126	35.1779455	-111.6569223	5.038
1560879841.8	94.0	-0.0329963117838	-0.0123664261773	1.65501224995	35.1779456	-111.6569224	5.037
1560879841.91	94.0	-0.0349305197597	-0.0115157905966	1.65554094315	35.1779456	-111.6569224	5.035
1560879842.0	94.0	-0.0345317572355	-0.0133858770132	1.65604817867	35.1779456	-111.6569225	5.034
1560879842.1	94.0	-0.0345317572355	-0.0133858770132	1.65604817867	35.1779456	-111.6569225	5.032
1560879842.21	94.0	-0.0332687757909	-0.0119060724974	1.65498971939	35.1779456	-111.6569225	5.032
1560879842.31	94.0	-0.0326411016285	-0.00985367596149	1.65607130527	35.1779456	-111.6569225	5.03
1560879842.4	94.0	-0.03330411762	-0.00882550422102	1.65713882446	35.1779456	-111.6569225	5.025
1560879842.5	94.0	-0.03330411762	-0.00882550422102	1.65713882446	35.1779456	-111.6569225	5.025
1560879842.61	94.0	-0.0355172678828	-0.00917945429683	1.65735816956	35.1779457	-111.6569226	5.022
1560879842.7	94.0	-0.0371406674385	-0.00828787870705	1.65688109398	35.1779457	-111.6569226	5.028
1560879842.8	94.0	-0.0383516028523	-0.0079022757709	1.65692865849	35.1779457	-111.6569227	5.031
1560879842.91	94.0	-0.0398357361555	-0.00789333414286	1.65680348873	35.1779457	-111.6569227	5.031
1560879843.01	94.0	-0.0396088771522	-0.00929986219853	1.6567312479	35.1779457	-111.6569227	5.03
1560879843.1	94.0	-0.0396088771522	-0.00929986219853	1.6567312479	35.1779457	-111.6569227	5.028
1560879843.2	94.0	-0.0389485284686	-0.0104970512912	1.65572583675	35.1779457	-111.6569227	5.028
1560879843.31	94.0	-0.0391748249531	-0.00815846305341	1.65444505215	35.1779457	-111.6569227	5.027
1560879843.4	94.0	-0.0373093038797	-0.00843868218362	1.65425002575	35.1779456	-111.6569228	5.03
1560879843.5	94.0	-0.0373093038797	-0.00843868218362	1.65425002575	35.1779456	-111.6569228	5.03
1560879843.61	94.0	-0.037095554173	-0.0101973339915	1.65373396873	35.1779456	-111.6569228	5.031
1560879843.71	94.0	-0.0399498566985	-0.0123204281554	1.65387964249	35.1779456	-111.6569229	5.035
1560879843.8	94.0	-0.0410521999002	-0.0156745910645	1.65427267551	35.1779456	-111.6569229	5.042
1560879843.91	94.0	-0.0417298600078	-0.0152757884935	1.65428960323	35.1779456	-111.656923	5.048
1560879844.01	94.0	-0.040467992425	-0.0158769264817	1.65411567688	35.1779455	-111.656923	5.047
1560879844.1	94.0	-0.040467992425	-0.0158769264817	1.65411567688	35.1779455	-111.656923	5.047
1560879844.21	94.0	-0.0379979014397	-0.0164312776178	1.65409302711	35.1779455	-111.656923	5.04
1560879844.3	94.0	-0.040907651186	-0.0152947157621	1.65443825722	35.1779455	-111.656923	5.033
1560879844.41	94.0	-0.0390110686421	-0.0134524200112	1.65581130981	35.1779454	-111.6569229	5.026
1560879844.5	94.0	-0.0390110686421	-0.0134524200112	1.65581130981	35.1779454	-111.6569229	5.026
1560879844.6	94.0	-0.0373189076781	-0.0152948880568	1.65674090385	35.1779454	-111.6569228	5.022
1560879844.71	94.0	-0.0365531221032	-0.015204927884	1.65702283382	35.1779454	-111.6569228	5.015
1560879844.8	95.0	-0.036375131458	-0.0150997648016	1.65751516819	35.1779453	-111.6569227	5.008
1560879844.9	95.0	-0.0358440428972	-0.0145613420755	1.65852034092	35.1779453	-111.6569227	5.004
1560879845.01	95.0	-0.0358440428972	-0.0145613420755	1.65852034092	35.1779453	-111.6569227	5.004
1560879845.1	95.0	-0.0362266376615	-0.0142713021487	1.65935587883	35.1779453	-111.6569226	4.999
1560879845.2	95.0	-0.0362599492073	-0.0130062522367	1.65940392017	35.1779453	-111.6569226	4.996
1560879845.31	95.0	-0.0367053858936	-0.0124816866592	1.66033792496	35.1779454	-111.6569226	4.994
1560879845.4	95.0	-0.0363600924611	-0.00941724609584	1.66052103043	35.1779455	-111.6569226	4.992
1560879845.5	95.0	-0.0359124317765	-0.0072661768645	1.66089713573	35.1779455	-111.6569225	4.988
1560879845.61	95.0	-0.0374136939645	-0.00572280026972	1.66078138351	35.1779456	-111.6569225	4.984
1560879845.7	95.0	-0.0374136939645	-0.00572280026972	1.66078138351	35.1779456	-111.6569225	4.984
1560879845.8	95.0	-0.0370240584016	-0.00412048120052	1.6612200737	35.1779456	-111.6569225	4.981
1560879845.91	95.0	-0.0353363901377	-0.00455648126081	1.66154062748	35.1779457	-111.6569224	4.98
1560879846.01	95.0	-0.0353827029467	-0.00407071923837	1.66171002388	35.1779457	-111.6569223	4.98
1560879846.1	95.0	-0.0353827029467	-0.00407071923837	1.66171002388	35.1779457	-111.6569223	4.98
1560879846.21	95.0	-0.0368106663227	-0.00340955564752	1.66223740578	35.1779457	-111.6569223	4.979
1560879846.31	95.0	-0.0364067032933	-0.00277579319663	1.66259586811	35.1779457	-111.6569222	4.98
1560879846.4	95.0	-0.0364067032933	-0.00277579319663	1.66259586811	35.1779457	-111.6569221	4.983
1560879846.51	95.0	-0.0341857112944	-0.00479109445587	1.66333556175	35.1779456	-111.656922	4.989
1560879846.6	95.0	-0.0336712300777	-0.00804721936584	1.66545367241	35.1779456	-111.656922	4.993
1560879846.7	95.0	-0.0336712300777	-0.00804721936584	1.66545367241	35.1779456	-111.656922	4.993
1560879848.11	95.0	-0.0364796370268	-0.0201758369803	1.66569018364	35.1779448	-111.6569222	4.976
1560879848.2	95.0	-0.0337477587163	-0.0191995687783	1.66545641422	35.1779447	-111.6569222	4.975
1560879848.31	95.0	-0.0321608111262	-0.0204730555415	1.66576457024	35.1779446	-111.6569221	4.971
1560879848.41	95.0	-0.0314344167709	-0.0168758928776	1.66612815857	35.1779446	-111.6569221	4.971
1560879848.5	95.0	-0.0309820212424	-0.0192299801856	1.66547131538	35.1779446	-111.656922	4.966
1560879848.61	95.0	-0.0299172308296	-0.0186674837023	1.66488432884	35.1779445	-111.656922	4.963
1560879848.71	95.0	-0.028176875785	-0.0200316030532	1.6639726162	35.1779445	-111.6569219	4.961
1560879848.8	95.0	-0.028176875785	-0.0200316030532	1.6639726162	35.1779445	-111.6569219	4.961
1560879848.91	95.0	-0.0296426266432	-0.0217707082629	1.66196644306	35.1779445	-111.6569219	4.96
1560879849.01	95.0	-0.0279483757913	-0.0204335097224	1.66048443317	35.1779445	-111.6569219	4.96
1560879849.1	95.0	-0.028172634542	-0.0156566984951	1.65834188461	35.1779445	-111.6569219	4.961
1560879849.2	94.0	-0.0292796902359	-0.0144677832723	1.65489709377	35.1779445	-111.6569218	4.962
1560879849.31	94.0	-0.0292796902359	-0.0144677832723	1.65489709377	35.1779445	-111.6569218	4.963
1560879849.41	94.0	-0.0295258909464	-0.0129023864865	1.65220415592	35.1779445	-111.6569218	4.967
1560879849.5	94.0	-0.0281658023596	-0.0116597898304	1.64903914928	35.1779445	-111.6569219	4.974
1560879849.61	94.0	-0.0285744573921	-0.0163356680423	1.6485106945	35.1779445	-111.6569219	4.981
1560879849.71	94.0	-0.0285744573921	-0.0163356680423	1.6485106945	35.1779446	-111.656922	4.984
1560879849.8	94.0	-0.0335138291121	-0.0192891322076	1.64873492718	35.1779446	-111.6569221	4.983
1560879849.9	94.0	-0.039490275085	-0.0210270620883	1.64848899841	35.1779446	-111.6569222	4.983
1560879850.01	94.0	-0.0395686551929	-0.0185285210609	1.64730000496	35.1779446	-111.6569222	4.983
1560879850.11	94.0	-0.0371540933847	-0.0159500222653	1.64720380306	35.1779446	-111.6569223	4.984
1560879850.2	94.0	-0.0391439832747	-0.0165001433343	1.64766049385	35.1779446	-111.6569223	4.986
1560879850.3	94.0	-0.0391439832747	-0.0165001433343	1.64766049385	35.1779447	-111.6569224	4.991
1560879850.41	94.0	-0.0412135981023	-0.0179976113141	1.65135610104	35.1779447	-111.6569224	4.996
1560879850.51	94.0	-0.0412135981023	-0.0179976113141	1.65135610104	35.1779447	-111.6569224	4.996
1560879850.6	94.0	-0.0431855805218	-0.0188414379954	1.6525156498	35.1779447	-111.6569224	5.0
1560879850.7	94.0	-0.0432861819863	-0.0201772749424	1.65347266197	35.1779447	-111.6569224	5.0
1560879850.81	94.0	-0.0422717854381	-0.018432803452	1.65397405624	35.1779448	-111.6569224	5.003
1560879850.9	94.0	-0.0432903766632	-0.0168342366815	1.65472614765	35.1779448	-111.6569224	5.003
1560879851.0	94.0	-0.0433199703693	-0.0160345677286	1.65609741211	35.1779449	-111.6569224	5.001
1560879851.11	94.0	-0.0406735613942	-0.0123995309696	1.65651929379	35.177945	-111.6569224	4.999
1560879851.21	94.0	-0.0397737249732	-0.00740381190553	1.65612792969	35.177945	-111.6569224	4.998
1560879851.3	94.0	-0.0379713028669	-0.000732688000426	1.65659427643	35.1779452	-111.6569224	5.0
1560879851.4	94.0	-0.0386161059141	0.00113490608055	1.65780043602	35.1779453	-111.6569224	4.998
1560879851.51	94.0	-0.0386161059141	0.00113490608055	1.65780043602	35.1779454	-111.6569224	4.997
1560879851.61	95.0	-0.0447129309177	-0.0028465455398	1.65872383118	35.1779455	-111.6569224	4.999
1560879851.71	95.0	-0.0491089075804	-0.00254609808326	1.65917229652	35.1779456	-111.6569224	4.999
1560879851.8	95.0	-0.0491089075804	-0.00254609808326	1.65917229652	35.1779456	-111.6569224	4.999
1560879851.91	95.0	-0.0460155121982	-0.00128587055951	1.65932321548	35.1779457	-111.6569224	4.999
1560879852.01	95.0	-0.0448695793748	0.00147080922034	1.65824306011	35.1779457	-111.6569223	5.0
1560879852.1	95.0	-0.0428270250559	0.00206672865897	1.65926229954	35.1779458	-111.6569223	5.002
1560879852.2	95.0	-0.0424432381988	0.00594826135784	1.65970516205	35.1779459	-111.6569223	5.005
1560879852.31	95.0	-0.0425639748573	0.0116747738793	1.6594773531	35.177946	-111.6569223	5.006
1560879852.41	95.0	-0.0451508462429	0.00699672661722	1.66022539139	35.1779461	-111.6569223	5.007
1560879852.5	95.0	-0.0481173954904	0.00724189728498	1.65997684002	35.1779461	-111.6569223	5.008
1560879852.6	95.0	-0.0491636432707	0.00361744780093	1.66069281101	35.1779461	-111.6569223	5.008
1560879852.71	95.0	-0.0502152405679	0.00533180404454	1.66128540039	35.1779462	-111.6569223	5.004
1560879852.81	95.0	-0.0502152405679	0.00533180404454	1.66128540039	35.1779462	-111.6569223	5.004
1560879852.9	95.0	-0.0507140383124	0.00437203375623	1.66164982319	35.1779462	-111.6569223	5.001
1560879853.01	95.0	-0.0484035760164	0.00570263108239	1.66266012192	35.1779462	-111.6569223	4.998
1560879853.11	95.0	-0.0482668764889	0.00409631477669	1.66359674931	35.1779461	-111.6569223	4.995
1560879853.2	95.0	-0.0469671264291	-0.000684285478201	1.66309309006	35.1779461	-111.6569224	4.992
1560879853.31	95.0	-0.0479593649507	-0.00232645357028	1.66260361671	35.1779461	-111.6569224	4.991
1560879853.4	95.0	-0.0474267825484	-0.00271372799762	1.66366708279	35.177946	-111.6569224	4.991
1560879853.5	95.0	-0.0467215999961	-0.00119754113257	1.66337192059	35.177946	-111.6569224	4.99
1560879853.61	95.0	-0.0460328422487	-0.00196702522226	1.66294586658	35.177946	-111.6569224	4.99
1560879853.7	95.0	-0.0449772253633	-0.00414124270901	1.66210448742	35.1779459	-111.6569224	4.989
1560879853.81	95.0	-0.0449772253633	-0.00414124270901	1.66210448742	35.1779459	-111.6569224	4.989
1560879853.91	95.0	-0.0429925471544	-0.00567056471482	1.66181719303	35.1779459	-111.6569224	4.983
1560879854.0	95.0	-0.0407445281744	-0.00656438898295	1.66228914261	35.1779457	-111.6569224	4.98
1560879854.1	95.0	-0.0406725481153	-0.00835898891091	1.66351735592	35.1779457	-111.6569224	4.98
1560879854.21	95.0	-0.042006932199	-0.00763852102682	1.66396939754	35.1779457	-111.6569224	4.976
1560879854.3	95.0	-0.0429226905107	-0.00950986146927	1.66425526142	35.1779456	-111.6569224	4.972
1560879854.4	95.0	-0.0429226905107	-0.00950986146927	1.66425526142	35.1779456	-111.6569224	4.972
1560879854.51	95.0	-0.0454736724496	-0.0103405909613	1.66427612305	35.1779456	-111.6569225	4.972
1560879854.61	95.0	-0.0466797798872	-0.00950958393514	1.66464984417	35.1779455	-111.6569225	4.973
1560879854.7	95.0	-0.0473141856492	-0.0068806419149	1.66433143616	35.1779455	-111.6569226	4.977
1560879854.81	95.0	-0.0465596094728	-0.006933005061	1.6639342308	35.1779455	-111.6569226	4.979
1560879854.9	95.0	-0.0471678860486	-0.00657693296671	1.66418600082	35.1779455	-111.6569227	4.979
1560879855.01	95.0	-0.0467462614179	-0.0065936576575	1.66404485703	35.1779454	-111.6569228	4.979
1560879855.1	95.0	-0.0478865392506	-0.00569160003215	1.66373634338	35.1779454	-111.6569228	4.98
1560879855.2	95.0	-0.0483986623585	-0.00730625819415	1.66384315491	35.1779454	-111.6569229	4.982
1560879855.3	95.0	-0.0472832843661	-0.00864113681018	1.66420149803	35.1779454	-111.656923	4.984
1560879855.41	95.0	-0.0495896376669	-0.00788944680244	1.66320335865	35.1779454	-111.656923	4.987
1560879855.5	95.0	-0.0486214235425	-0.00958556309342	1.66344606876	35.1779454	-111.6569231	4.989
1560879855.6	95.0	-0.048681885004	-0.0119298808277	1.6635081768	35.1779453	-111.6569231	4.994
1560879855.71	95.0	-0.048681885004	-0.0119298808277	1.6635081768	35.1779453	-111.6569232	4.999
1560879855.8	95.0	-0.0472659878433	-0.0128408661112	1.66330420971	35.1779453	-111.6569232	5.004
1560879855.9	95.0	-0.0466082505882	-0.0131853111088	1.66338384151	35.1779453	-111.6569233	5.006
1560879856.0	95.0	-0.0474828369915	-0.0115380883217	1.66337394714	35.1779453	-111.6569233	5.006
1560879856.11	95.0	-0.0483233109117	-0.0108028603718	1.6634554863	35.1779453	-111.6569233	5.008
1560879856.2	95.0	-0.0478335469961	-0.00858169607818	1.66319215298	35.1779452	-111.6569234	5.009
1560879856.3	95.0	-0.0451562106609	-0.0103964777663	1.6636146307	35.1779452	-111.6569234	5.012
1560879856.41	95.0	-0.0451562106609	-0.0103964777663	1.6636146307	35.1779452	-111.6569234	5.012
1560879856.51	95.0	-0.0446926988661	-0.0105018941686	1.66272091866	35.1779453	-111.6569234	5.009
1560879856.6	95.0	-0.0446279086173	-0.00818664766848	1.66193521023	35.1779453	-111.6569234	5.005
1560879856.7	95.0	-0.044764123857	-0.00623078923672	1.66297614574	35.1779454	-111.6569234	4.999
1560879858.1	95.0	-0.038797698915	-0.00672504212707	1.66481304169	35.1779456	-111.6569229	4.963
1560879858.21	95.0	-0.0395075492561	-0.00691334530711	1.66505801678	35.1779456	-111.6569229	4.964
1560879858.31	95.0	-0.0382495373487	-0.00644838344306	1.66555249691	35.1779456	-111.6569229	4.965
1560879858.4	95.0	-0.0360966399312	-0.00872983317822	1.66481029987	35.1779456	-111.6569228	4.967
1560879858.51	95.0	-0.0372751280665	-0.011158997193	1.66413211823	35.1779456	-111.6569228	4.969
1560879858.61	95.0	-0.0405036769807	-0.00997847691178	1.6643986702	35.1779456	-111.6569229	4.971
1560879858.7	95.0	-0.0413824319839	-0.00878098979592	1.66461896896	35.1779456	-111.6569229	4.974
1560879858.81	95.0	-0.0422864109278	-0.00894116517156	1.66445839405	35.1779456	-111.6569229	4.976
1560879858.91	95.0	-0.0412697680295	-0.00795251596719	1.66415417194	35.1779457	-111.6569229	4.973
1560879859.0	95.0	-0.0412697680295	-0.00795251596719	1.66415417194	35.1779457	-111.6569229	4.972
1560879859.1	95.0	-0.040530346334	-0.00659836409613	1.66479444504	35.1779457	-111.6569229	4.972
1560879859.21	95.0	-0.0388181470335	-0.00643572676927	1.66478145123	35.1779457	-111.6569228	4.97
1560879859.31	95.0	-0.0376914739609	-0.00693410588428	1.66392564774	35.1779457	-111.6569228	4.97
1560879859.4	95.0	-0.0369506627321	-0.00837846007198	1.66345608234	35.1779457	-111.6569227	4.968
1560879859.5	95.0	-0.0365480780602	-0.00744132651016	1.66383242607	35.1779457	-111.6569226	4.965
1560879859.61	95.0	-0.0343894138932	-0.00728486152366	1.6640034914	35.1779457	-111.6569225	4.962
1560879859.71	95.0	-0.0335170775652	-0.00748035963625	1.66368472576	35.1779457	-111.6569224	4.961
1560879859.8	95.0	-0.0329102389514	-0.00766839180142	1.66405081749	35.1779457	-111.6569224	4.963
1560879859.9	95.0	-0.0316305346787	-0.00852078851312	1.66469061375	35.1779457	-111.6569223	4.962
1560879860.01	95.0	-0.0310187116265	-0.00977021642029	1.66471588612	35.1779457	-111.6569223	4.962
1560879860.11	95.0	-0.0303521156311	-0.00914837606251	1.66484177113	35.1779457	-111.6569222	4.962
1560879860.2	95.0	-0.0303521156311	-0.00914837606251	1.66484177113	35.1779457	-111.6569221	4.959
1560879860.3	95.0	-0.0315145552158	-0.0060888165608	1.66466295719	35.1779457	-111.6569221	4.953
1560879860.41	95.0	-0.0328387841582	-0.00751832779497	1.66476714611	35.1779457	-111.6569221	4.95
1560879860.5	95.0	-0.034464944154	-0.00720239430666	1.6642023325	35.1779457	-111.6569221	4.949
1560879860.6	95.0	-0.0357115119696	-0.00614709313959	1.66414058208	35.1779457	-111.6569222	4.949
1560879860.71	95.0	-0.0365393832326	-0.00773672387004	1.66410040855	35.1779457	-111.6569222	4.953
1560879860.8	95.0	-0.0365393832326	-0.00773672387004	1.66410040855	35.1779457	-111.6569222	4.959
1560879860.9	95.0	-0.0371838286519	-0.0076938145794	1.66411018372	35.1779457	-111.6569223	4.965
1560879861.01	95.0	-0.039574816823	-0.00947616808116	1.66409862041	35.1779457	-111.6569224	4.975
1560879861.11	95.0	-0.0399864912033	-0.0116526195779	1.66430771351	35.1779457	-111.6569225	4.982
1560879861.2	95.0	-0.0420237034559	-0.00870805140585	1.66395437717	35.1779457	-111.6569226	4.987
1560879861.31	95.0	-0.0405597314239	-0.00898790732026	1.66437804699	35.1779457	-111.6569226	4.993
1560879861.4	95.0	-0.0405597314239	-0.00898790732026	1.66437804699	35.1779457	-111.6569226	4.993
1560879861.5	95.0	-0.0402527675033	-0.00831870362163	1.66409873962	35.1779457	-111.6569227	4.997
1560879861.61	95.0	-0.0394749939442	-0.00984766334295	1.66393315792	35.1779456	-111.6569227	4.998
1560879861.71	95.0	-0.0401568859816	-0.00999880675226	1.66424250603	35.1779456	-111.6569228	4.998
1560879861.8	95.0	-0.0407944768667	-0.00961530208588	1.66397023201	35.1779456	-111.6569229	5.0
1560879861.91	95.0	-0.0407944768667	-0.00961530208588	1.66397023201	35.1779456	-111.6569229	5.0
1560879862.0	95.0	-0.0405748561025	-0.0105340164155	1.66494035721	35.1779455	-111.6569229	5.001
1560879862.1	95.0	-0.0404925122857	-0.0124371619895	1.66446352005	35.1779455	-111.6569229	5.003
1560879862.21	95.0	-0.0382373929024	-0.0127770733088	1.66479325294	35.1779455	-111.6569229	5.003
1560879862.31	95.0	-0.0382373929024	-0.0127770733088	1.66479325294	35.1779455	-111.6569229	5.003
1560879862.4	95.0	-0.0366743206978	-0.0143978009	1.66404640675	35.1779454	-111.6569228	5.004
1560879862.51	95.0	-0.0343581810594	-0.014225804247	1.66394984722	35.1779454	-111.6569228	5.004
1560879862.61	95.0	-0.0343581810594	-0.014225804247	1.66394984722	35.1779453	-111.6569227	5.005
1560879862.7	95.0	-0.0336656905711	-0.0131780961528	1.66430926323	35.1779453	-111.6569227	5.006
1560879862.81	95.0	-0.0343602970243	-0.0117367580533	1.66463148594	35.1779453	-111.6569227	5.009
1560879862.91	95.0	-0.0343602970243	-0.0117367580533	1.66463148594	35.1779453	-111.6569227	5.01
1560879863.0	95.0	-0.0347031131387	-0.0117504606023	1.6646232605	35.1779452	-111.6569226	5.012
1560879863.11	95.0	-0.0345587059855	-0.0113140484318	1.66421914101	35.1779452	-111.6569226	5.016
1560879863.21	95.0	-0.0345587059855	-0.0113140484318	1.66421914101	35.1779452	-111.6569226	5.016
1560879863.3	95.0	-0.0330739840865	-0.0122858108953	1.66455924511	35.1779452	-111.6569225	5.018
1560879863.41	95.0	-0.0333511903882	-0.0116363987327	1.66380107403	35.1779452	-111.6569225	5.018
1560879863.51	95.0	-0.0327644571662	-0.0114460950717	1.66379272938	35.1779452	-111.6569224	5.015
1560879863.6	95.0	-0.0311983525753	-0.0120826680213	1.66345131397	35.1779452	-111.6569224	5.015
1560879863.7	95.0	-0.0312786065042	-0.0103975124657	1.66311490536	35.1779452	-111.6569224	5.013
1560879863.81	95.0	-0.0309803094715	-0.010858586058	1.66375875473	35.1779452	-111.6569223	5.01
1560879863.9	95.0	-0.0325217619538	-0.0127712227404	1.66331613064	35.1779452	-111.6569223	5.008
1560879864.0	95.0	-0.0325217619538	-0.0127712227404	1.66331613064	35.1779452	-111.6569223	5.009
1560879864.11	95.0	-0.0331182330847	-0.0133396470919	1.66294085979	35.1779452	-111.6569223	5.013
1560879864.2	95.0	-0.032651245594	-0.0122711258009	1.66154706478	35.1779452	-111.6569223	5.014
1560879864.3	95.0	-0.0337577015162	-0.00837590172887	1.66097247601	35.1779453	-111.6569223	5.014
1560879864.4	95.0	-0.0335025936365	-0.00791011750698	1.66118431091	35.1779453	-111.6569223	5.013
1560879864.51	95.0	-0.0335396640003	-0.0095605654642	1.66159319878	35.1779453	-111.6569224	5.013
1560879864.61	95.0	-0.0354789569974	-0.00551972119138	1.66086232662	35.1779454	-111.6569224	5.011
1560879864.7	95.0	-0.0354789569974	-0.00551972119138	1.66086232662	35.1779454	-111.6569224	5.011
1560879864.81	95.0	-0.0337220877409	-0.00569194136187	1.66053771973	35.1779454	-111.6569226	5.008
1560879864.9	95.0	-0.0370595827699	-0.00532968947664	1.65924417973	35.1779454	-111.6569227	5.004
1560879865.0	95.0	-0.0370595827699	-0.00532968947664	1.65924417973	35.1779455	-111.6569228	5.0
1560879865.11	95.0	-0.0387422293425	-0.00470269052312	1.65958178043	35.1779455	-111.6569229	4.999
1560879865.21	95.0	-0.0434878394008	-0.00517805572599	1.65943622589	35.1779455	-111.656923	4.997
1560879865.3	95.0	-0.0434878394008	-0.00517805572599	1.65943622589	35.1779455	-111.656923	4.994
1560879865.41	95.0	-0.0440924204886	-0.00451906071976	1.6600048542	35.1779455	-111.656923	4.994
1560879865.51	95.0	-0.0421858504415	-0.00240077334456	1.66080546379	35.1779455	-111.6569231	4.996
1560879865.6	95.0	-0.040539264679	-0.00463396497071	1.66059875488	35.1779455	-111.6569231	4.995
1560879865.71	95.0	-0.040539264679	-0.00463396497071	1.66059875488	35.1779455	-111.6569231	4.995
1560879865.8	95.0	-0.0411085560918	-0.00444976985455	1.66022586823	35.1779455	-111.6569232	4.999
1560879865.9	95.0	-0.0402407348156	-0.00696660857648	1.66149747372	35.1779455	-111.6569232	5.001
1560879866.01	95.0	-0.0422538295388	-0.00808635074645	1.66156542301	35.1779454	-111.6569232	5.0
1560879866.1	95.0	-0.0410411655903	-0.0074020838365	1.66139233112	35.1779454	-111.6569231	4.999
1560879866.2	95.0	-0.0410411655903	-0.0074020838365	1.66139233112	35.1779454	-111.6569231	4.999
1560879866.31	95.0	-0.0405240207911	-0.00861966889352	1.66138577461	35.1779453	-111.6569231	5.0
1560879866.4	95.0	-0.0405429974198	-0.00901923794299	1.66200828552	35.1779453	-111.6569231	5.002
1560879866.5	95.0	-0.0401782616973	-0.00980894453824	1.66152846813	35.1779453	-111.6569231	5.005
1560879866.61	95.0	-0.0414114035666	-0.0121090663597	1.66143298149	35.1779452	-111.6569231	5.007
1560879866.7	95.0	-0.0402981080115	-0.0118969064206	1.66226625443	35.1779452	-111.6569231	5.007
1560879868.21	95.0	-0.0370723679662	-0.00726749654859	1.66475605965	35.1779453	-111.6569228	4.987
1560879868.31	95.0	-0.0376432985067	-0.0066139115952	1.66345584393	35.1779453	-111.6569228	4.984
1560879868.4	95.0	-0.0357571169734	-0.00648547708988	1.66369223595	35.1779454	-111.6569228	4.982
1560879868.5	95.0	-0.0357571169734	-0.00648547708988	1.66369223595	35.1779454	-111.6569227	4.982
1560879868.61	95.0	-0.0345460809767	-0.00481759756804	1.66347265244	35.1779454	-111.6569227	4.982
1560879868.71	95.0	-0.0349985957146	-0.0035963691771	1.66326141357	35.1779454	-111.6569227	4.983
1560879868.8	95.0	-0.035796687007	-0.00400973390788	1.66333448887	35.1779454	-111.6569227	4.984
1560879868.91	95.0	-0.035796687007	-0.00400973390788	1.66333448887	35.1779454	-111.6569227	4.982
1560879869.01	95.0	-0.0357748642564	-0.00355921965092	1.66304850578	35.1779454	-111.6569227	4.98
1560879869.1	95.0	-0.0353307053447	-0.00374578358606	1.66272842884	35.1779454	-111.6569227	4.981
1560879869.2	95.0	-0.0340715572238	-0.00519846426323	1.6628588438	35.1779454	-111.6569226	4.983
1560879869.31	95.0	-0.0328947156668	-0.00453013507649	1.66293716431	35.1779454	-111.6569225	4.985
1560879869.4	95.0	-0.0327014178038	-0.00560780102387	1.66362953186	35.1779454	-111.6569225	4.984
1560879869.51	95.0	-0.030393704772	-0.00506394030526	1.66364383698	35.1779454	-111.6569224	4.984
1560879869.6	95.0	-0.0307392217219	-0.00666070589796	1.66307735443	35.1779453	-111.6569224	4.984
1560879869.71	95.0	-0.0302372723818	-0.00733048235998	1.66329824924	35.1779453	-111.6569224	4.982
1560879869.81	95.0	-0.0317012295127	-0.00906232371926	1.66324830055	35.1779453	-111.6569224	4.979
1560879869.9	95.0	-0.032241653651	-0.00912535283715	1.66320407391	35.1779453	-111.6569224	4.979
1560879870.0	95.0	-0.0316495969892	-0.0123363574967	1.66360986233	35.1779452	-111.6569223	4.98
1560879870.11	95.0	-0.0331578105688	-0.0111332358792	1.66364192963	35.1779452	-111.6569223	4.984
1560879870.21	95.0	-0.032418332994	-0.0106529146433	1.66356694698	35.1779452	-111.6569223	4.984
1560879870.31	95.0	-0.0315580070019	-0.0107098193839	1.66298854351	35.1779452	-111.6569223	4.983
1560879870.41	95.0	-0.0324005186558	-0.00947449170053	1.66249239445	35.1779452	-111.6569222	4.984
1560879870.51	95.0	-0.0308489836752	-0.00873146392405	1.6628895998	35.1779452	-111.6569222	4.984
1560879870.6	95.0	-0.0308489836752	-0.00873146392405	1.6628895998	35.1779452	-111.6569222	4.984
1560879870.7	95.0	-0.0319516807795	-0.00781667977571	1.66276526451	35.1779451	-111.6569222	4.987
